longitude,latitude,name,address,pname,cityname,adcode,adname,business_area,type,id
113.93394,30.740659,中国电信辛安渡支局,徐家台4号,湖北省,武汉市,420112,东西湖区,,公司企业;公司;电信公司,B0FFFFZADH
113.943131,30.457001,中国电信(永安营业厅),永安大街134号(邮局旁边),湖北省,武汉市,420114,蔡甸区,,生活服务;电讯营业厅;中国电信营业厅|公司企业;公司;电信公司,B0FFGFNGMA
113.920077,30.342695,中国电信东城垸支局,东荆街48号,湖北省,武汉市,420113,汉南区,,公司企业;公司;电信公司|生活服务;电讯营业厅;中国电信营业厅,B0FFFFZ6AG
113.92023,30.342693,湖北省电信公司武汉市汉南区电信局(东城垸支局),东荆街48号,湖北省,武汉市,420113,汉南区,,公司企业;公司;电信公司,B0FFJJ97G5
113.985744,30.517965,中国电信(玉贤营业厅),永安街道玉贤路238号,湖北省,武汉市,420114,蔡甸区,,生活服务;电讯营业厅;中国电信营业厅|公司企业;公司;电信公司,B001B15PTM
113.986114,30.299085,长江通信,经济开发区(汉南)邓南街道水塔路6号,湖北省,武汉市,420113,汉南区,,公司企业;公司;电信公司,B001B17FG1
114.015591,30.771369,中国电信东山支局,莲湖村1号,湖北省,武汉市,420112,东西湖区,,公司企业;公司;电信公司,B0FFFFZG93
114.031533,30.6478,中国电信(走马岭营业厅),走马岭东西湖大道3948号,湖北省,武汉市,420112,东西湖区,走马岭,生活服务;电讯营业厅;中国电信营业厅|公司企业;公司;电信公司,B001B0JLPT
114.026625,30.587825,中国电信城关分局,文正街67号,湖北省,武汉市,420114,蔡甸区,,公司企业;公司;电信公司,B001B0JLPV
114.039224,30.573083,中国移动通信集团湖北有限公司,,湖北省,武汉市,420114,蔡甸区,,公司企业;公司;电信公司,B0FFLFKNE2
114.036126,30.575768,中国联合网络通信有限公司蔡甸分公司,临嶂大道与汉阳大街交叉口西南50米,湖北省,武汉市,420114,蔡甸区,,公司企业;公司;电信公司,B0FFH3YQAU
114.029015,30.57116,中国电信股份有限公司(蔡甸分公司),蔡甸大街206号,湖北省,武汉市,420114,蔡甸区,,公司企业;公司;电信公司,B001B16SP3
114.039226,30.573135,中国移动通信集团湖北有限公司蔡甸分公司(武汉市蔡甸区财政局西北),茂源街18附20西60米,湖北省,武汉市,420114,蔡甸区,,公司企业;公司;电信公司,B0FFINMIU0
114.150735,30.628687,中国移动通信集团湖北有限公司东西湖分公司,二雅路200号,湖北省,武汉市,420112,东西湖区,,公司企业;公司;电信公司,B001B0K39Z
114.150189,30.627111,中国联通(武汉市分公司东西湖区营销服务中心),二雅路天合新界6号楼,湖北省,武汉市,420112,东西湖区,三店,公司企业;公司;电信公司,B0FFGG5BLV
114.136776,30.613248,湖北电信实业有限责任公司(革新大道),革新大道641号,湖北省,武汉市,420112,东西湖区,,公司企业;公司;电信公司,B0FFGFQPJG
114.149301,30.622579,中国电信股份有限公司武汉东西湖区分公司(开屏里社区北区东北),吴家山东吴大道二雅路1192号,湖北省,武汉市,420112,东西湖区,,公司企业;公司;电信公司,B0FFGOCC2A
114.13663,30.297775,中国电信股份有限公司金水闸支局,闸东路10号,湖北省,武汉市,420115,江夏区,,公司企业;公司;电信公司|生活服务;电讯营业厅;中国电信营业厅,B001B09T2Q
114.201343,30.647105,中国电信武汉金银湖运营基地,金银湖街道金银湖航天路9号中国电信金银湖运营基地电信大楼,湖北省,武汉市,420112,东西湖区,,公司企业;公司;电信公司,B0FFF2VHSJ
114.200421,30.645903,中国电信(金银湖路),金银湖街道金银湖航天路9号中国电信金银湖运营基地电信大楼,湖北省,武汉市,420112,东西湖区,,公司企业;公司;电信公司,B0FFINH9K2
114.195566,30.604503,中国移动通信集团湖北有限公司硚口区分公司,南泥湾大道71号汇义楼A座1层,湖北省,武汉市,420104,硚口区,古田,公司企业;公司;电信公司,B0FFGCDPZO
114.171872,30.559011,中国电信股份有限公司武汉汉阳分公司永丰分局,永丰街办事处米粮村米粮新家园19栋,湖北省,武汉市,420105,汉阳区,,公司企业;公司;电信公司,B0FFHLORUU
114.16813,30.49817,中国联通东风公司,湘隆时代广场中国联通东风公司,湖北省,武汉市,420114,蔡甸区,沌口,公司企业;公司;电信公司,B0FFL4OKQF
114.154186,30.48779,中国电信开发区沌阳分局,郭蔡路154号附近,湖北省,武汉市,420114,蔡甸区,沌口,公司企业;公司;电信公司,B0FFJULFPF
114.191873,30.461623,中国电信股份有限公司沌口分局,沌口街办事处沌口路466-468武汉经济技术开发区,湖北省,武汉市,420114,蔡甸区,沌口,公司企业;公司;电信公司|政府机构及社会团体;工商税务机构;工商部门,B0FFFGLWKY
114.162831,30.494403,中国电信政企客户事业部武汉分部(神龙大道),武汉经济开发区神龙大道124号,湖北省,武汉市,420114,蔡甸区,沌口,公司企业;公司;电信公司,B001B19IDJ
114.154079,30.488042,中国电信沌阳分局,郭蔡路142号附近,湖北省,武汉市,420114,蔡甸区,沌口,公司企业;公司;电信公司,B001B1A5PQ
114.162294,30.494295,中国电信股份有限公司武汉经济技术开发区分公司(神龙大道),经济开发区神龙大道124号,湖北省,武汉市,420114,蔡甸区,沌口,公司企业;公司;电信公司,B001B0I6U6
114.238073,30.735155,武汉龙城佳信网络通信有限公司(佳海环形路),佳海环形路451附近,湖北省,武汉市,420116,黄陂区,,公司企业;公司;电信公司,B0FFGFSE4M
114.245447,30.62642,中国移动通信集团湖北有限公司,常青三路66号,湖北省,武汉市,420103,江汉区,常青,公司企业;公司;电信公司,B001B0IZFQ
114.24336,30.625187,中国电信(湖北公司客户活动中心),白沙洲电信大楼1层,湖北省,武汉市,420103,江汉区,常青,公司企业;公司;电信公司|体育休闲服务;休闲场所;休闲场所,B0FFFJL2QG
114.23238,30.61911,中国移动通信集团湖北有限公司,经济开发区江达路8号(发展三路)湖北移动客服中心大楼,湖北省,武汉市,420103,江汉区,常青,公司企业;公司;电信公司|生活服务;电讯营业厅;中国移动营业厅,B0FFFOGKA0
114.236092,30.63528,中国电信股份有限公司常青分局,学府南路62号,湖北省,武汉市,420112,东西湖区,常青,公司企业;公司;电信公司,B001B0I04M
114.205181,30.647755,中国联通湖北省分公司,联通路,湖北省,武汉市,420112,东西湖区,,公司企业;公司;电信公司,B001B0JM0V
114.234164,30.622943,中国电信股份有限公司湖北客户服务中心,江汉经济开发区江旺路1号,湖北省,武汉市,420103,江汉区,常青,公司企业;公司;电信公司,B001B16EE1
114.228797,30.622077,武汉三力通信有限责任公司,江汉经济开发区江汉经济开发区区江兴路22号京山轻机大厦5楼,湖北省,武汉市,420103,江汉区,常青,公司企业;公司;电信公司,B001B15SFD
114.234684,30.622262,中国通信服务,发展二路与江旺路交叉口西南100米,湖北省,武汉市,420103,江汉区,常青,公司企业;公司;电信公司,B0FFHNO0L7
114.234623,30.622531,湖北电信实业有限责任公司(江旺路),江汉经济开发区江旺路2号,湖北省,武汉市,420103,江汉区,常青,公司企业;公司;电信公司,B001B08VLH
114.233045,30.620473,中国移动,江达路9号汉口客户服务中心2号客服生产楼5层,湖北省,武汉市,420103,江汉区,常青,公司企业;公司;电信公司,B0FFKEI5GR
114.24051,30.62426,中国电信集团湖北省电信公司,汉兴街街道汉兴街办事处常青路158号,湖北省,武汉市,420103,江汉区,常青,公司企业;公司;电信公司,B0FFKQVZ0A
114.244067,30.626098,中国电信股份有限公司号百信息服务分公司,常青五路99号,湖北省,武汉市,420103,江汉区,常青,公司企业;公司;电信公司,B001B1BYHH
114.244034,30.625707,中国电信集团系统集成有限责任公司湖北分公司,常青街办事处常青五路99号,湖北省,武汉市,420103,江汉区,常青,公司企业;公司;电信公司,B0FFHIJE3W
114.2438,30.626018,中国电信股份有限公司湖北移动互联网增值业务销售中心,常青五路99号,湖北省,武汉市,420103,江汉区,常青,公司企业;公司;电信公司,B001B0B0AC
114.243889,30.625968,中国电信湖北省电信有限公司宣传中心,常青五路99号,湖北省,武汉市,420103,江汉区,常青,公司企业;公司;电信公司,B001B08VZH
114.232747,30.620255,中国移动通信集团湖北有限公司客户服务中心,江汉经济开发区江发路10号,湖北省,武汉市,420103,江汉区,常青,公司企业;公司;电信公司,B001B16XBI
114.226464,30.583115,中国电信股份有限公司武汉硚口区分公司水厂分局,建设大道43-2号附近,湖北省,武汉市,420104,硚口区,宗关,公司企业;公司;电信公司,B0FFH1GV6S
114.210785,30.591252,湖北省电信公司硚口区电信局,解放大道227号古田四路,湖北省,武汉市,420104,硚口区,古田,公司企业;公司;电信公司,B001B0BJ0G
114.213253,30.593128,中国电信股份有限公司湖北传输局,古田四路23-25号,湖北省,武汉市,420104,硚口区,古田,公司企业;公司;电信公司,B001B0A4XX
114.212773,30.594523,中国移动工程公司,古田街道古田四路25号,湖北省,武汉市,420104,硚口区,古田,公司企业;公司;电信公司,B0FFIBCZDB
114.238789,30.608472,中国电信常码头局,常腾街8号,湖北省,武汉市,420104,硚口区,常青,公司企业;公司;电信公司,B001B16X09
114.210851,30.591264,中国电信股份有限公司武汉硚口区分公司南垸分局,解放大道217号,湖北省,武汉市,420104,硚口区,古田,公司企业;公司;电信公司,B0FFHFUVJW
114.213253,30.593128,中国电信股份有限公司湖北机动通信局,古田四路23-25号,湖北省,武汉市,420104,硚口区,古田,公司企业;公司;电信公司,B0FFFDDNPF
114.21175,30.564536,中国联通武汉分公司(龙阳大道),二桥玫瑰园街108号华大大厦5层,湖北省,武汉市,420105,汉阳区,琴断口,生活服务;电讯营业厅;中国联通营业厅|购物服务;家电电子卖场;手机销售|公司企业;公司;电信公司,B001B09U2G
114.249509,30.611081,中国联通武汉长乐机房,常青街街道常青街办事处常青路296号天时大厦中国联通武汉分公司长乐机房,湖北省,武汉市,420103,江汉区,常青,公司企业;公司;电信公司,B0FFG4HGEC
114.219041,30.557823,武汉电信工程有限公司,汉阳大道643号十里铺,湖北省,武汉市,420105,汉阳区,七里庙,公司企业;公司;电信公司,B001B160KA
114.207712,30.557631,中国移动汉阳区分公司,龙阳凯悦大厦B座8-9层,湖北省,武汉市,420105,汉阳区,,公司企业;公司;电信公司,B0FFF901YR
114.219852,30.558634,中国电信股份有限公司十里铺分局,琴断口街办事处汉阳大道641号,湖北省,武汉市,420105,汉阳区,七里庙,公司企业;公司;电信公司,B001B0I3LW
114.21995,30.558787,中国电信股份有限公司武汉汉阳区分公司(赫山路),汉阳大道641附1号,湖北省,武汉市,420105,汉阳区,七里庙,公司企业;公司;电信公司,B0FFHU28VL
114.27637,30.70798,武汉龙城佳信网络通信有限公司,巨龙大道78附近,湖北省,武汉市,420116,黄陂区,,公司企业;公司;电信公司,B0FFIPT7YX
114.298846,30.700229,中国电信武汉分公司汉口北分局,盘龙城经济开发区卓尔企业社区20号楼,湖北省,武汉市,420116,黄陂区,,公司企业;公司;电信公司,B0FFF42JQP
114.268063,30.617871,中国电信(唐家墩营业厅),,湖北省,武汉市,420103,江汉区,新华,生活服务;电讯营业厅;中国电信营业厅|公司企业;公司;电信公司,B001B09T31
114.282345,30.618276,中国电信(江大路营业厅),花桥街街道江大路115号五楼,湖北省,武汉市,420102,江岸区,竹叶山,生活服务;电讯营业厅;中国电信营业厅|公司企业;公司;电信公司,B001B03A3F
114.300674,30.621433,中国联通武汉分公司(建设大道),建设大道1079号,湖北省,武汉市,420102,江岸区,二七,公司企业;公司;电信公司,B001B09U2W
114.268266,30.617919,中国电信姑嫂树分局,唐家墩街办事处发展大道247号,湖北省,武汉市,420103,江汉区,新华,公司企业;公司;电信公司,B0FFI704AS
114.300276,30.621097,湖北联通客服呼叫中心,建设大道1077号,湖北省,武汉市,420102,江岸区,二七,公司企业;公司;电信公司,B0FFGWGLFU
114.300435,30.621063,信息导航业务中心,二七街办事处建设大道1077号中国联通,湖北省,武汉市,420102,江岸区,二七,公司企业;公司;电信公司,B0FFFGLX4X
114.282315,30.618339,中国电信股份有限公司武汉分公司商业客户部,江大路117号附近,湖北省,武汉市,420102,江岸区,竹叶山,公司企业;公司;电信公司,B0FFJ96T1Y
114.256647,30.613547,中国移动通信集团湖北有限公司武汉分公司,发展大道180号武汉市公安局指挥大楼,湖北省,武汉市,420103,江汉区,常青,公司企业;公司;电信公司,B0FFHRTYUX
114.258332,30.617717,大矽谷电信制作有限公司(武汉办事处),金墩街15财神广场写字楼6层A25,湖北省,武汉市,420103,江汉区,常青,公司企业;公司;电信公司,B001B0I924
114.27769,30.583102,中国通信建设第三工程局,解放大道784-788号中国通信建设,湖北省,武汉市,420103,江汉区,新华,公司企业;公司;电信公司,B001B071JJ
114.288632,30.606405,湖北信通通信有限公司,惠济路10号,湖北省,武汉市,420102,江岸区,建设大道,公司企业;公司;电信公司,B001B0JVY7
114.277707,30.583008,中通建设股份有限公司第三分公司,解放大道784-788号中国通信建设,湖北省,武汉市,420103,江汉区,新华,公司企业;公司;电信公司,B001B03BC0
114.27769,30.583102,中国通信建设北京咨询设计有限公司第三分公司,解放大道784-788号中国通信建设,湖北省,武汉市,420103,江汉区,新华,公司企业;公司;电信公司,B001B03BC1
114.276681,30.595794,中国电信江汉分局,云林街31号中环大厦B座3层,湖北省,武汉市,420102,江岸区,新华,公司企业;公司;电信公司,B001B1CCEP
114.280382,30.576808,中国电信股份有限公司武汉江汉区分公司,民主一街50号,湖北省,武汉市,420103,江汉区,六渡桥,公司企业;公司;电信公司,B0FFGCB489
114.277151,30.595841,中国电信股份有限公司武汉江岸区分公司台北路分局,台北路云林街27号,湖北省,武汉市,420102,江岸区,新华,公司企业;公司;电信公司,B0FFHDLQRL
114.29611,30.586663,中国电信,合作路47号,湖北省,武汉市,420102,江岸区,江滩,购物服务;家电电子卖场;手机销售|公司企业;公司;电信公司,B0FFGZDYQH
114.291547,30.592611,武汉亿网通网络通信公司,解放大道1070号财富大厦1658,湖北省,武汉市,420102,江岸区,西马,公司企业;公司;电信公司,B001B09PNJ
114.267475,30.573241,湖北省电信公司荣华分局,荣华西村30,湖北省,武汉市,420104,硚口区,崇仁,公司企业;公司;电信公司,B0FFGBUMNL
114.295824,30.586722,中国电信股份有限公司武汉分公司集团客户服务部,合作路47号,湖北省,武汉市,420102,江岸区,江滩,公司企业;公司;电信公司,B0FFGCBZE7
114.299426,30.583959,长江艾维通信有限公司,合作路13君安大厦5层,湖北省,武汉市,420102,江岸区,江滩,公司企业;公司;电信公司,B001B16PAA
114.295731,30.586358,中国电信集团公司政企客户事业部武汉分部(汉口),合作路47号,湖北省,武汉市,420102,江岸区,江滩,公司企业;公司;电信公司,B001B1IGG4
114.290635,30.605589,中国电信开明路分局,澳门路234号,湖北省,武汉市,420102,江岸区,建设大道,公司企业;公司;电信公司,B001B09T2R
114.296089,30.586679,湖北公众信息产业有限责任公司武汉电信系统集成分公司,胜利街128号新源大厦5层505,湖北省,武汉市,420102,江岸区,江滩,公司企业;公司;电信公司,B001B0I2U9
114.269493,30.60586,中国卫通(湖北分公司),新华路385南达大楼5层508-509,湖北省,武汉市,420103,江汉区,西北湖,公司企业;公司;电信公司,B001B085RY
114.298117,30.585401,中国移动通信集团湖北有限公司(江岸区分公司建维中心),大智街办事处合作路26号,湖北省,武汉市,420102,江岸区,江滩,公司企业;公司;电信公司,B001B18PM0
114.289081,30.607076,湖北中移通信技术工程有限公司,劳动街办事处惠济路13号,湖北省,武汉市,420102,江岸区,建设大道,公司企业;公司;电信公司,B001B03708
114.294587,30.60576,武汉金德电信有限责任公司,劳动街办事处解放公园路49号,湖北省,武汉市,420102,江岸区,建设大道,公司企业;公司;电信公司,B0FFF9ZEOX
114.291846,30.601138,中国移动通信集团湖北有限公司离退服务中心,球场路62号,湖北省,武汉市,420102,江岸区,建设大道,生活服务;电讯营业厅;中国移动营业厅|公司企业;公司;电信公司,B001B1C6VH
114.290666,30.605548,中国电信,劳动街办事处球场路60号,湖北省,武汉市,420102,江岸区,建设大道,公司企业;公司;电信公司,B0FFH9D331
114.253738,30.586061,中国电信武汉市分公司,建设大道457号武汉信息港电信公司,湖北省,武汉市,420104,硚口区,建设大道,公司企业;公司;电信公司|购物服务;家电电子卖场;手机销售,B001B1IJ3T
114.266566,30.609301,中国移动通信集团终端有限公司湖北分公司,新华路481号,湖北省,武汉市,420103,江汉区,新华,公司企业;公司;电信公司,B001B1C5VX
114.253457,30.586004,中国电信硚口区电信局营房村分局,宝丰街道建设大道宝丰一路武汉信息港457号,湖北省,武汉市,420104,硚口区,建设大道,公司企业;公司;电信公司,B0FFH3T6A9
114.295906,30.586796,中国电信股份有限公司武汉分公司系统集成部,合作路47号,湖北省,武汉市,420102,江岸区,江滩,公司企业;公司;电信公司,B001B0B0AB
114.253688,30.585961,中国电信湖北省电信有限公司武汉市分公司系统集成部,建设大道457武汉信息港,湖北省,武汉市,420104,硚口区,建设大道,公司企业;公司;电信公司,B0FFH3T65O
114.253693,30.585964,中国电信湖北省电信有限公司武汉市分公司商务领航中心,建设大道457武汉信息港,湖北省,武汉市,420104,硚口区,建设大道,公司企业;公司;电信公司,B0FFH3T65M
114.253457,30.586004,中国电信湖北省电信有限公司武汉市分公司114号码百事通中心,建设大道457武汉信息港中国电信武汉市分公司,湖北省,武汉市,420104,硚口区,建设大道,公司企业;公司;电信公司,B0FFH3T65I
114.253457,30.586004,中国电信武汉市分公司新业务演示厅,建设大道457号武汉信息港,湖北省,武汉市,420104,硚口区,建设大道,公司企业;公司;电信公司,B001B08VZB
114.295778,30.60564,光通通信发展有限公司武汉分公司,解放公园路45附5华通大厦4层401,湖北省,武汉市,420102,江岸区,建设大道,公司企业;公司;电信公司,B001B0I804
114.253457,30.586004,中国电信湖北省电信有限公司武汉市分公司电子商务中心,建设大道457武汉信息港,湖北省,武汉市,420104,硚口区,建设大道,公司企业;公司;电信公司,B001B08VZ4
114.25295,30.518186,中国电信(洲头营业厅),鹦鹉大道389号,湖北省,武汉市,420105,汉阳区,鹦鹉村,生活服务;电讯营业厅;中国电信营业厅|公司企业;公司;电信公司,B0FFGCDSCZ
114.266376,30.548324,中国电信股份有限公司钟家村分局,鹦鹉大道33号,湖北省,武汉市,420105,汉阳区,鹦鹉村,公司企业;公司;电信公司,B0FFHFV863
114.300543,30.533649,中国电信紫阳路分局,张之洞路大歌笛湖小区10栋,湖北省,武汉市,420106,武昌区,紫阳,公司企业;公司;电信公司,B001B16Y5C
114.274137,30.55273,中移铁通武汉分公司汉阳家客工作站,建桥街办事处建桥新村111号,湖北省,武汉市,420105,汉阳区,建桥,公司企业;公司;电信公司,B0FFHG71WT
114.276598,30.473103,信产通信服务有限公司洪山工作站,白沙五路与白沙路交叉口东北200米,湖北省,武汉市,420111,洪山区,,公司企业;公司;电信公司,B0FFIR78C1
114.280417,30.267267,湖北省电信有限公司段岭庙支局,段岭庙街东50米,湖北省,武汉市,420115,江夏区,,公司企业;公司;电信公司,B001B0I7ET
114.273869,30.069547,中国电信河垴支局,河垴街47号,湖北省,武汉市,420115,江夏区,,公司企业;公司;电信公司|生活服务;电讯营业厅;中国电信营业厅,B001B15VIB
114.331907,30.653379,中国电信股份有限公司武汉长江新区分公司,丹水池街街道兴业路219号,湖北省,武汉市,420102,江岸区,,公司企业;公司;电信公司,B0FFGCBAX3
114.305575,30.623185,中国电信股份有限公司武汉分公司江岸区营维中心黄浦路分局,建设大道与韦桑路交叉口东南150米,湖北省,武汉市,420102,江岸区,二七,公司企业;公司;电信公司,B0FFI2BUIG
114.305575,30.623185,中国电信股份有限公司江岸分公司黄浦路分局,二七街办事处韦桑路68号,湖北省,武汉市,420102,江岸区,二七,公司企业;公司;电信公司,B0FFHMUK3G
114.33857,30.591454,中国电信股份有限公司徐东分局,,湖北省,武汉市,420106,武昌区,徐家棚,公司企业;公司;电信公司,B0FFLGBJI5
114.337266,30.579131,中国电信学子公司湖北大学分公司,友谊大道118号三角路花园刘家河小区一层底商洞子火锅,湖北省,武汉市,420106,武昌区,,公司企业;公司;电信公司,B0FFJ7ZGSM
114.338417,30.591324,中国电信股份有限公司武汉分公司综合服务支撑中心订单中心,,湖北省,武汉市,420106,武昌区,徐家棚,公司企业;公司;电信公司,B0FFLGB0ZW
114.318862,30.547986,中国网通(武汉分公司),中山路347号中铁大厦12层1201-1204室,湖北省,武汉市,420106,武昌区,小东门,公司企业;公司;电信公司,B001B0BJO8
114.336947,30.542616,中国铁通武汉分公司(民主路),民主路786号华银大厦24层,湖北省,武汉市,420106,武昌区,,公司企业;公司;电信公司,B001B0IYL2
114.326119,30.544461,中国移动通信集团湖北有限公司(武昌区分公司),民主路719号金都华庭A座,湖北省,武汉市,420106,武昌区,,公司企业;公司;电信公司,B0FFG4EGXI
114.312327,30.544403,中国电信通信值班室,民主路471号,湖北省,武汉市,420106,武昌区,小东门,公司企业;公司;电信公司,B001B0BJ0H
114.318862,30.547986,神州通信有限公司湖北分公司,中山路347号中铁大厦13层1301-1304室,湖北省,武汉市,420106,武昌区,小东门,公司企业;公司;电信公司,B001B0B9UJ
114.338637,30.547209,中国电信武汉分公司政企客户部,水果湖街办事处中北路4号,湖北省,武汉市,420106,武昌区,水果湖,公司企业;公司;电信公司,B0FFGCBLOZ
114.340346,30.542179,湖北铁通通信工程有限公司,水果湖街办事处八一路9号星星大厦2楼,湖北省,武汉市,420106,武昌区,水果湖,公司企业;公司;电信公司,B001B0IV5H
114.338638,30.547203,中国电信武汉分公司党政客户服务部,中北路4号,湖北省,武汉市,420106,武昌区,水果湖,公司企业;公司;电信公司|生活服务;生活服务场所;生活服务场所,B0FFFGV4KR
114.339175,30.545611,中国电信股份有限公司武汉分公司,洪山路69-11号附近,湖北省,武汉市,420106,武昌区,水果湖,公司企业;公司;电信公司,B001B1GM6T
114.302439,30.542963,中国联合网络通信有限公司武汉市分公司(武昌营销服务中心),中南路街办事处彭刘杨路242号三医院旁西场口社区九龙井小区7,湖北省,武汉市,420106,武昌区,,公司企业;公司;电信公司,B0FFH188LF
114.302482,30.542953,中国联合网络通信有限公司武昌营销服务中心,,湖北省,武汉市,420106,武昌区,,公司企业;公司;电信公司,B0FFLCLKUD
114.306871,30.558178,中国电信武汉分公司系统集成部,积玉桥汉成里,湖北省,武汉市,420106,武昌区,积玉桥,公司企业;公司;电信公司,B0FFG657AK
114.306871,30.558178,中国电信武汉武昌区分公司民主路分局,积玉桥汉成里,湖北省,武汉市,420106,武昌区,积玉桥,公司企业;公司;电信公司,B0FFG64YQD
114.313397,30.503786,武汉市南湖电信局,恒安路69号,湖北省,武汉市,420106,武昌区,,公司企业;公司;电信公司,B001B1IIAR
114.349042,30.509432,中国电信股份有限公司武汉洪山区分公司,珞狮南路240号尤李东村龙港小区1层,湖北省,武汉市,420111,洪山区,,公司企业;公司;电信公司,B0FFFLJ0DQ
114.330584,30.359481,中国电信股份有限公司(江夏分公司),江夏大道171号,湖北省,武汉市,420115,江夏区,纸坊,公司企业;公司;电信公司,B001B0I7CA
114.328704,30.35448,中国移动通信集团江夏分公司,江夏大道165号附近,湖北省,武汉市,420115,江夏区,纸坊,公司企业;公司;电信公司,B0FFILGT1Y
114.327073,30.256948,中国电信(乌龙泉营业厅),富民路95号,湖北省,武汉市,420115,江夏区,,生活服务;电讯营业厅;中国电信营业厅|公司企业;公司;电信公司,B001B09T32
114.37239,31.215213,中国联通姚集办事处,百业街35号,湖北省,武汉市,420116,黄陂区,,公司企业;公司;电信公司,B001B17E5Q
114.380147,30.884911,中国联合网络通信有限公司黄陂区分公司,,湖北省,武汉市,420116,黄陂区,,公司企业;公司;电信公司,B0FFLG7LSU
114.382039,30.883542,中国移动(黄陂分公司),百乐街东50米,湖北省,武汉市,420116,黄陂区,前川,公司企业;公司;电信公司,B0FFGH5DZ2
114.383339,30.881329,中国电信股份有限公司黄陂分公司,黄陂大道100号,湖北省,武汉市,420116,黄陂区,前川,公司企业;公司;电信公司,B0FFFL279X
114.38491,30.876762,中国移动黄陂区支撑服务中心,,湖北省,武汉市,420116,黄陂区,前川,公司企业;公司;电信公司,B0FFLHG28B
114.373577,30.876107,中国移动(武汉双凤大道营业厅),双凤大道580号,湖北省,武汉市,420116,黄陂区,前川,公司企业;公司;电信公司,B001B0I9RS
114.3777,30.871056,湖北网络广电,前川街龙谭街19号,湖北省,武汉市,420116,黄陂区,前川,公司企业;公司;电信公司,B0FFGJ97L9
114.391733,30.633854,中国联通(工业一路),和平大道1284号中银大厦19A-E,湖北省,武汉市,420107,青山区,冶金,公司企业;公司;电信公司,B0FFFLJNEH
114.385896,30.623828,武钢数字电视,辽阳街2号,湖北省,武汉市,420107,青山区,,公司企业;公司;电信公司,B0FFG77LMW
114.389731,30.632838,中国电信股份有限公司青山区分公司,和平大道1282号,湖北省,武汉市,420107,青山区,冶金,公司企业;公司;电信公司,B0FFHMWR6P
114.37854,30.614971,中国移动通信集团青山区分公司,友谊大道898开来·九洲国际A座,湖北省,武汉市,420107,青山区,,公司企业;公司;电信公司,B001B1C6IS
114.359165,30.571325,中国电信股份有限公司武汉武昌商客汉街楼宇支局,水果湖街办事处中北路218号,湖北省,武汉市,420106,武昌区,东亭,公司企业;公司;电信公司,B0FFL878WT
114.360052,30.575885,中国电信股份有限公司武汉传输局,中南路街办事处中北路303附1号,湖北省,武汉市,420106,武昌区,,公司企业;公司;电信公司,B001B1CGMN
114.352443,30.523289,中国移动湖北公司洪山区分公司,珞狮南路142号理工大孵化楼7楼,湖北省,武汉市,420111,洪山区,,公司企业;公司;电信公司,B0FFHFY8BI
114.352393,30.54573,中国电信股份有限公司武汉水果湖分公司省直分局,洪山路负70号附近,湖北省,武汉市,420106,武昌区,水果湖,公司企业;公司;电信公司,B0FFJWFOO1
114.373592,30.518733,武汉市宇光网络通信有限责任公司,珞喻路409号美尔雅大厦312,湖北省,武汉市,420111,洪山区,,公司企业;公司;电信公司,B001B09QWU
114.399613,30.512231,武汉国光通信有限公司,鲁磨路243号国光大厦A座2402室,湖北省,武汉市,420111,洪山区,关山,公司企业;公司;电信公司,B001B06ZS8
114.395348,30.507416,武汉电信实业有限责任公司,珞喻路鲁巷724号(永和豆浆旁),湖北省,武汉市,420111,洪山区,关山,公司企业;公司;电信公司,B001B1BW1B
114.395318,30.507453,中国电信股份有限公司武汉分公司云计算销售运营中心,珞瑜路724号,湖北省,武汉市,420111,洪山区,关山,公司企业;公司;电信公司,B0FFH77GAD
114.395723,30.507206,中国电信股份有限公司武汉洪山区分公司鲁巷分局,鲁巷广场购物中心,湖北省,武汉市,420111,洪山区,关山,公司企业;公司;电信公司,B0FFGIMBDN
114.394099,30.51084,中国联合网络通信有限公司洪山营销服务中心校园营销中心,珞喻路789号省通信管理局4层,湖北省,武汉市,420111,洪山区,关山,公司企业;公司;电信公司,B0FFHRTYWL
114.394085,30.510741,中国联合网络通信有限公司武汉市分公司校园营销中心,珞喻路789号省通信管理局4层,湖北省,武汉市,420111,洪山区,关山,公司企业;公司;电信公司,B0FFH1UDGZ
114.385431,30.440125,中国电信(庙山分局),东湖高新大学园路36号,湖北省,武汉市,420111,洪山区,,生活服务;电讯营业厅;中国电信营业厅|公司企业;公司;电信公司,B001B05AA1
114.426373,30.961589,中国电信(王家河营业厅),群益大街91号,湖北省,武汉市,420116,黄陂区,,生活服务;电讯营业厅;中国电信营业厅|公司企业;公司;电信公司,B001B0HZRS
114.421464,30.699978,武汉龙城佳信网络通信有限公司(武湖正街),武湖正街21号附近,湖北省,武汉市,420116,黄陂区,,公司企业;公司;电信公司,B0FFH1FN8J
114.411085,30.513518,武汉市电信局洪山区局华工支局,珞瑜路1037号华中科技大学,湖北省,武汉市,420111,洪山区,,公司企业;公司;电信公司,B001B1BO9L
114.423573,30.5031,中国联通,光谷大道5号,湖北省,武汉市,420111,洪山区,关山,公司企业;公司;电信公司|生活服务;电讯营业厅;中国联通营业厅,B001B1D3OV
114.412996,30.50091,东湖开发区电信支局,关山大道115号,湖北省,武汉市,420111,洪山区,关山,公司企业;公司;电信公司,B001B0JO93
114.414253,30.501653,中国移动东湖新技术开发区公司,关山大道111号光谷时代广场A座A13层,湖北省,武汉市,420111,洪山区,关山,公司企业;公司;电信公司,B0FFFOVDIU
114.412928,30.500961,中国电信股份有限公司武汉洪山区分公司关山分局,关山大道115号,湖北省,武汉市,420111,洪山区,关山,公司企业;公司;电信公司,B0FFGBOTX2
114.423824,30.449212,中国信息通信科技集团,东湖新技术开发区高新四路6号烽火科技园,湖北省,武汉市,420115,江夏区,流芳,公司企业;公司;电信公司,B0FFJVUVQF
114.417326,30.428673,武汉虹信通信技术有限责任公司,藏龙岛谭湖二路1号虹信产业园2号楼4楼,湖北省,武汉市,420115,江夏区,,公司企业;公司;电信公司,B0FFHE988G
114.446693,30.413664,博畅通信,东湖开发区光谷大道凤凰园一路7号,湖北省,武汉市,420115,江夏区,,公司企业;公司;电信公司,B0FFJWZ9RO
114.416975,30.104091,湖北省电信有限公司保福支局,保福街,湖北省,武汉市,420115,江夏区,,公司企业;公司;电信公司,B001B0I7F1
114.467742,31.09748,黄陂区电信局塔耳分局,木兰大道2、10,湖北省,武汉市,420116,黄陂区,,公司企业;公司;电信公司,B001B0HZQC
114.482205,30.50314,中国电信关东分局,百合路与群建小路交叉口西100米,湖北省,武汉市,420111,洪山区,,公司企业;公司;电信公司,B0FFGFSLBX
114.465096,30.30311,中国电信(大屋陈支局),006县道西50米,湖北省,武汉市,420115,江夏区,,公司企业;公司;电信公司,B001B1BO51
114.5463,30.490523,中国联通武汉未来科技城数据中心,光谷八路与高新大道交叉口西北200米,湖北省,武汉市,420115,江夏区,,公司企业;公司;电信公司,B0FFIIXDJL
114.507858,30.112937,中国电信舒安支局,田铺村梁湖路政府舒安街道办事处附近,湖北省,武汉市,420115,江夏区,,公司企业;公司;电信公司,B001B161QD
114.571954,30.66712,湖北省电信有限公司阳逻分局,阳光大道与周冲街交叉口西50米,湖北省,武汉市,420117,新洲区,阳逻,公司企业;公司;电信公司,B001B0HZXO
114.574713,30.657771,中国电信阳逻传输分局,阳逻镇金融街207号,湖北省,武汉市,420117,新洲区,阳逻,公司企业;公司;电信公司,B001B17FXE
114.604575,30.834409,中国联通新洲区分公司仓埠办事处,武滨路127号,湖北省,武汉市,420117,新洲区,,公司企业;公司;电信公司,B0FFFFYC0J
114.70587,30.774593,中国电信汪集支局,荣生街91号,湖北省,武汉市,420117,新洲区,,公司企业;公司;电信公司|生活服务;电讯营业厅;中国电信营业厅,B001B0JLXR
114.756286,30.924361,中国电信凤凰支局,凤凰大道44号,湖北省,武汉市,420117,新洲区,,公司企业;公司;电信公司,B001B15PG6
114.798916,30.828203,中国电信股份有限公司新洲分公司,龙腾大街54号,湖北省,武汉市,420117,新洲区,邾城,公司企业;公司;电信公司,B001B0K5DX
114.803346,30.831399,中国联通智慧生活馆,邾城街齐安大道134号,湖北省,武汉市,420117,新洲区,邾城,公司企业;公司;电信公司|生活服务;电讯营业厅;中国联通营业厅,B001B09U2N
114.813348,30.832565,中国移动通信集团新洲分公司,,湖北省,武汉市,420117,新洲区,邾城,公司企业;公司;电信公司,B0FFLG63HV
114.81357,30.832639,中国移动通信集团湖北有限公司(新洲分公司),邾城街衡州大道219号,湖北省,武汉市,420117,新洲区,邾城,公司企业;公司;电信公司,B001B15OSS
114.837811,30.645152,中国电信,112省道附近,湖北省,武汉市,420117,新洲区,,公司企业;公司;电信公司,B001B0IG0F
114.894804,30.993759,中国移动通信集团潘塘区域营销中心,,湖北省,武汉市,420117,新洲区,潘塘村,公司企业;公司;电信公司,B0FFLGUWN5
113.841395,30.503638,松岭村医卫室,,湖北省,武汉市,420114,蔡甸区,,商务住宅;产业园区;产业园区,B0FFHLXAZH
113.85013,30.388533,正大科技示范园,洪林路南50米,湖北省,武汉市,420114,蔡甸区,,商务住宅;产业园区;产业园区,B001B0IZIM
113.848478,30.262079,久瑞核技术产业园,吉顺路与晨曦路交叉口西100米,湖北省,武汉市,420113,汉南区,,商务住宅;产业园区;产业园区,B001B17F4G
113.870739,30.252218,盖尔包装产业园,103省道东50米,湖北省,武汉市,420113,汉南区,,商务住宅;产业园区;产业园区,B0FFI79S3Y
113.859128,30.255351,湘口工业园,030县道与321省道交叉口西100米,湖北省,武汉市,420113,汉南区,,商务住宅;产业园区;产业园区,B001B15Q3K
113.864774,30.221967,大北农(武汉)科技园,103省道水一村,湖北省,武汉市,420113,汉南区,,商务住宅;产业园区;产业园区,B0FFHLLYM6
113.950177,30.701659,银利工业园,,湖北省,武汉市,420112,东西湖区,,商务住宅;产业园区;产业园区,B0FFLFBPRV
113.949202,30.706408,七彩龙珠葡萄科技园,新沟镇惠安大道102号(离S106省道不远),湖北省,武汉市,420112,东西湖区,,商务住宅;产业园区;产业园区,B0FFF3S7F1
113.934714,30.450199,台湾青年创业园,G318(永兴街),湖北省,武汉市,420114,蔡甸区,,商务住宅;产业园区;产业园区,B0FFL2UGD5
113.934606,30.45049,大学生创业园,永兴街万岭村,湖北省,武汉市,420114,蔡甸区,,商务住宅;产业园区;产业园区,B0FFGA8SK5
113.934352,30.450221,东方之子生物产业园,永兴街万岭村,湖北省,武汉市,420114,蔡甸区,,商务住宅;产业园区;产业园区,B001B17D54
113.934599,30.307281,卓尔生态工业城,生态大道与103省道交叉口东100米,湖北省,武汉市,420113,汉南区,,商务住宅;产业园区;产业园区,B001B15ZAQ
113.988195,30.772522,五龙壹生态工业区,东柏路与107国道交叉口西100米,湖北省,武汉市,420112,东西湖区,,商务住宅;产业园区;产业园区,B0FFHLW5TN
113.989574,30.72983,扬帆工业园,东风路与107国道交叉口东南150米,湖北省,武汉市,420112,东西湖区,,商务住宅;产业园区;产业园区,B0FFKB7CG9
113.989727,30.727152,越府,东西湖大道373号,湖北省,武汉市,420112,东西湖区,,商务住宅;产业园区;产业园区,B0FFKR18SN
113.994313,30.755597,华顿工业园,东西湖大道,湖北省,武汉市,420112,东西湖区,,商务住宅;产业园区;产业园区,B0FFFFYZIC
113.980492,30.679701,光达产业园,油纱路139东南60米,湖北省,武汉市,420112,东西湖区,,商务住宅;产业园区;产业园区,B0FFI970CE
113.988109,30.693849,联东武汉物流园区,革新大道荷花苑还建小区2期对面,湖北省,武汉市,420112,东西湖区,,商务住宅;产业园区;产业园区,B0FFHR3KC0
113.965665,30.698021,葛洲坝高端装备产业园,兴工二路,湖北省,武汉市,420112,东西湖区,,商务住宅;产业园区;产业园区,B0FFJCNJMK
113.953193,30.700734,新沟工业园,新沟镇,湖北省,武汉市,420112,东西湖区,,商务住宅;产业园区;产业园区,B0FFG2774W
113.971805,30.608974,西湖流域水土保持科技示范园A区,013县道西50米,湖北省,武汉市,420114,蔡甸区,,商务住宅;产业园区;产业园区,B001B15YOX
113.971797,30.608898,蔡甸区白湖生态农业示范园,013县道西50米,湖北省,武汉市,420114,蔡甸区,,商务住宅;产业园区;产业园区,B001B17EMH
113.985328,30.512247,中地集团产业园(建设中),玉贤路西150米,湖北省,武汉市,420114,蔡甸区,,商务住宅;产业园区;产业园区,B0FFFF95WR
113.97851,30.476584,武汉瑞福德工业园,檀树岭驾校对面,湖北省,武汉市,420114,蔡甸区,,商务住宅;产业园区;产业园区,B0FFF2E5GO
113.974096,30.473491,武汉唐氏工业园,104省道北150米,湖北省,武汉市,420114,蔡甸区,,商务住宅;产业园区;产业园区,B0FFFZLUJ4
113.976068,30.473361,长庚锻造工业园,104省道西50米,湖北省,武汉市,420114,蔡甸区,,商务住宅;产业园区;产业园区,B0FFGACZBP
113.971771,30.473618,中原工业园,104省道北100米,湖北省,武汉市,420114,蔡甸区,,商务住宅;产业园区;产业园区,B0FFG24WJT
113.972725,30.472465,亿深玻璃工业园,104省道北50米,湖北省,武汉市,420114,蔡甸区,,商务住宅;产业园区;产业园区,B0FFFZLUII
113.964672,30.50896,九真山彩色树苗产业园,九真山,湖北省,武汉市,420114,蔡甸区,,商务住宅;产业园区;产业园区,B0FFH8GYWJ
114.000223,30.441886,同利工业园,奓山街道常福大道奓山中学西250米,湖北省,武汉市,420114,蔡甸区,,商务住宅;产业园区;产业园区,B0FFHLVEYX
114.00213,30.45155,奓山街联村工业园-西区,白鹤泉西街奓山街联村工业园附近,湖北省,武汉市,420114,蔡甸区,,商务住宅;产业园区;产业园区,B0FFGLRL7Q
114.042535,30.743371,绿蔬园现代农业园,,湖北省,武汉市,420112,东西湖区,,商务住宅;产业园区;产业园区,B0FFLEMO3W
114.025778,30.668421,深国际·综合物流港,东吴大道与华祥路交叉口北150米,湖北省,武汉市,420112,东西湖区,,生活服务;物流速递;物流仓储场地|商务住宅;产业园区;产业园区,B0FFIHMUS1
114.033238,30.665885,普洛斯物流园,青松村盈石物流园,湖北省,武汉市,420112,东西湖区,,商务住宅;产业园区;产业园区,B0FFLBT8GY
114.035397,30.664005,盈石物流园,走马岭青松村,湖北省,武汉市,420112,东西湖区,,生活服务;物流速递;物流仓储场地|商务住宅;产业园区;产业园区,B0FFHD3YQH
114.025233,30.666962,深国际武汉现代综合物流,东吴大道,湖北省,武汉市,420112,东西湖区,,商务住宅;产业园区;产业园区,B0FFHSBQXQ
114.034083,30.665628,普洛斯武汉东西湖走马岭物流园,,湖北省,武汉市,420112,东西湖区,,商务住宅;产业园区;产业园区,B0FFLCDZWF
114.033615,30.664723,新宜·中国武汉(东西湖)临空港物流园,走马岭金山南路7号,湖北省,武汉市,420112,东西湖区,,商务住宅;产业园区;产业园区,B0FFINGODZ
114.02978,30.662596,易商东西湖物流园,东吴大道东100米,湖北省,武汉市,420112,东西湖区,,商务住宅;产业园区;产业园区,B0FFIQROXI
114.028529,30.63651,湖北源香食品产业园,革新大道,湖北省,武汉市,420112,东西湖区,,商务住宅;产业园区;产业园区,B0FFH2KK4P
114.031747,30.636181,枫阳生物工业园,双汇循环路与革新大道交叉口西北150米,湖北省,武汉市,420112,东西湖区,,商务住宅;产业园区;产业园区,B0FFHM6LP0
114.034395,30.641924,明典工业园,走马岭农场,湖北省,武汉市,420112,东西湖区,,商务住宅;产业园区;产业园区,B001B15QJF
114.035157,30.642257,武汉中小企业城(走马岭1号路),东西湖大道西200米,湖北省,武汉市,420112,东西湖区,,商务住宅;产业园区;产业园区,B001B16T0L
114.040493,30.630437,道和物流园,汇通大道西走马岭南十四支沟3号厂房1栋1-5层,湖北省,武汉市,420112,东西湖区,,商务住宅;产业园区;产业园区,B0FFI1B9D5
114.046627,30.631581,走马岭工业园,东西湖大道,湖北省,武汉市,420112,东西湖区,,商务住宅;产业园区;产业园区,B0FFG1X18V
114.05053,30.630571,武汉市食品工业加工区,东西湖大道南100米武汉全球商品采购中心附近,湖北省,武汉市,420112,东西湖区,,商务住宅;产业园区;产业园区,B0FFFTKDXW
114.047508,30.625335,武汉空港综合保税区,革新大道南100米,湖北省,武汉市,420112,东西湖区,,商务住宅;产业园区;产业园区,B0FFI7O2QT
114.051341,30.635694,优途物流园,东西湖大道,湖北省,武汉市,420112,东西湖区,,商务住宅;产业园区;产业园区,B0FFIKJFY0
114.042034,30.657785,武汉天龙都市工业园,造纸厂宿舍32,湖北省,武汉市,420112,东西湖区,,商务住宅;产业园区;产业园区,B001B15QJ5
114.049994,30.625373,武汉新港空港综保区,,湖北省,武汉市,420112,东西湖区,,商务住宅;产业园区;产业园区,B0FFLFB65K
114.046786,30.645924,顺丰武汉丰泰电商产业园(建设中),东吴大道东150米,湖北省,武汉市,420112,东西湖区,,商务住宅;产业园区;产业园区,B0FFK76J03
114.00691,30.650562,良品产业园,,湖北省,武汉市,420112,东西湖区,,商务住宅;产业园区;产业园区,B0FFLFFZZZ
114.022652,30.66047,美安国际电商物流城,东西湖大道与立光路交汇处,湖北省,武汉市,420112,东西湖区,,商务住宅;产业园区;产业园区,B0FFG5B99Q
114.050573,30.631199,湖北武汉现代农产品加工区,东西湖大道南50米,湖北省,武汉市,420112,东西湖区,,商务住宅;产业园区;产业园区,B001B15QIC
114.010149,30.658905,德晟(武汉)食品产业园,华祥路与革新大道交汇处西南200米,湖北省,武汉市,420112,东西湖区,,商务住宅;产业园区;产业园区|公司企业;公司企业;公司企业,B0FFKCAQPB
114.050527,30.62497,武汉新港空港综合保税区,革新大道附近,湖北省,武汉市,420112,东西湖区,,商务住宅;产业园区;产业园区,B0FFG885FJ
114.02011,30.586356,齐联工业园区A区,齐联里25号,湖北省,武汉市,420114,蔡甸区,,商务住宅;产业园区;产业园区,B001B0K1UP
114.028452,30.590481,齐联工业园区C区,蔡江路22附近,湖北省,武汉市,420114,蔡甸区,,商务住宅;产业园区;产业园区,B001B0JLQV
114.019451,30.584252,齐联工业园区B区,秦府路89号,湖北省,武汉市,420114,蔡甸区,,商务住宅;产业园区;产业园区,B001B0K22R
114.006627,30.583016,太山工业园,树藩大街附近,湖北省,武汉市,420114,蔡甸区,,商务住宅;产业园区;产业园区,B0FFG1Q5SU
114.051395,30.575658,博奇工业园,姚家山开发区博奇路1号,湖北省,武汉市,420114,蔡甸区,,商务住宅;产业园区;产业园区,B001B0JL1V
114.050876,30.57324,泰佛工业园,汉江路东50米附近,湖北省,武汉市,420114,蔡甸区,,商务住宅;产业园区;产业园区,B001B1CK4D
114.024243,30.559115,圣恩智汇物流园,南环路与新福路交汇处,湖北省,武汉市,420114,蔡甸区,,商务住宅;产业园区;产业园区,B0FFHIB69H
114.019529,30.471046,联东U谷武汉蔡甸创新企业港(建设中),星光大道与花园湾二街交汇处,湖北省,武汉市,420114,蔡甸区,,商务住宅;产业园区;产业园区,B0FFKY8VIW
114.047099,30.469788,武桥重工梅洛特物流园,九康路,湖北省,武汉市,420114,蔡甸区,,商务住宅;产业园区;产业园区,B0FFHS0TAV
114.051249,30.475383,百姓驰腾工业园,,湖北省,武汉市,420114,蔡甸区,,商务住宅;产业园区;产业园区,B0FFLFK8OO
114.043527,30.474799,武汉盟盛汽车产业园,花园湾一街56正东方向162米,湖北省,武汉市,420114,蔡甸区,,商务住宅;产业园区;产业园区,B0FFIMPGHM
114.014285,30.46197,星光九鼎工业园,奓山街,湖北省,武汉市,420114,蔡甸区,,商务住宅;产业园区;产业园区,B0FFFF6GOK
114.049037,30.47535,湖北仟岛科技工业园,花园湾一街64,湖北省,武汉市,420114,蔡甸区,,商务住宅;产业园区;产业园区,B0FFIAJF6W
114.008607,30.463518,星光中昊工业园,G50(沪渝高速),湖北省,武汉市,420114,蔡甸区,,商务住宅;产业园区;产业园区,B0FFGXM6QB
114.031438,30.463434,华辰工业园,,湖北省,武汉市,420114,蔡甸区,,商务住宅;产业园区;产业园区,B0FFI22W6W
114.048563,30.470834,宏利兴业科技有限公司工业园,,湖北省,武汉市,420114,蔡甸区,,商务住宅;产业园区;产业园区,B0FFKJZ5N1
114.027564,30.466744,星光集团工业园,大奓路东50米,湖北省,武汉市,420114,蔡甸区,,商务住宅;产业园区;产业园区,B001B17FRE
114.046712,30.461489,园区无忧,,湖北省,武汉市,420114,蔡甸区,,商务住宅;产业园区;产业园区,B0FFLFGB7B
114.045589,30.444564,常福工业园,常兴路,湖北省,武汉市,420114,蔡甸区,,商务住宅;产业园区;产业园区,B001B0JNKG
114.031841,30.439137,联盟工业园(福泰路),常福大道与福泰路交叉口南150米,湖北省,武汉市,420114,蔡甸区,,商务住宅;产业园区;产业园区,B001B17EJJ
114.033335,30.440893,东风鸿泰循环经济产业园,福泰路与车站南路交叉口东150米,湖北省,武汉市,420114,蔡甸区,,商务住宅;产业园区;产业园区,B0FFIRT594
114.049155,30.452644,永利(武汉)工业园,奓山镇白鹤泉东路193号,湖北省,武汉市,420114,蔡甸区,,商务住宅;产业园区;产业园区,B001B160ZV
114.035094,30.444511,高能激光智能装备产业园,常福工业示范园常欢大道88号,湖北省,武汉市,420114,蔡甸区,,商务住宅;产业园区;产业园区,B0FFJX6LVE
114.021167,30.44743,联谊工业园,郭湾54,湖北省,武汉市,420114,蔡甸区,,商务住宅;产业园区;产业园区,B001B15XQ5
114.044239,30.441764,日月永利工业园,常福大道与福星路交叉口北150米,湖北省,武汉市,420114,蔡甸区,,商务住宅;产业园区;产业园区,B0FFGFQY2N
114.032273,30.452159,武汉中豪工业园,常泰路与白鹤泉东街交叉口西北100米,湖北省,武汉市,420114,蔡甸区,,商务住宅;产业园区;产业园区,B001B0JNHA
114.022987,30.459596,星光村工业园,大奓路西50米,湖北省,武汉市,420114,蔡甸区,,商务住宅;产业园区;产业园区,B001B17SZ8
114.023436,30.450339,奓山科技园地磅(长江流域农林科学院),G318(沪聂线)奓山宾馆与星光建材城中间,湖北省,武汉市,420114,蔡甸区,,商务住宅;产业园区;产业园区,B0FFL0F755
114.048877,30.438821,常福·必大工业园,常兴路与常福大道交叉口南150米,湖北省,武汉市,420114,蔡甸区,,商务住宅;产业园区;产业园区,B0FFG4IZNW
114.035594,30.453683,武船重工股份钢构产业园,福泰路武船重工股份钢构产业园,湖北省,武汉市,420114,蔡甸区,,商务住宅;产业园区;产业园区,B0FFFF9YWN
114.044996,30.450849,华泰阳光汽车配件产业园,奓山街白鹤泉东街188号,湖北省,武汉市,420114,蔡甸区,,商务住宅;产业园区;产业园区,B0FFF3OS21
114.051379,30.433411,马斯特工业园,玛瑙二路8,湖北省,武汉市,420114,蔡甸区,,商务住宅;产业园区;产业园区,B0FFFFB1JU
114.009126,30.44991,武汉蔡甸经济开发区,,湖北省,武汉市,420114,蔡甸区,,商务住宅;产业园区;产业园区,B0FFLEU56K
114.050485,30.428744,大用工业园,福祥路东50米,湖北省,武汉市,420114,蔡甸区,,商务住宅;产业园区;产业园区,B0FFHM3YF8
114.006941,30.448439,奓山村四友同创工业园,白鹤泉西街南150米,湖北省,武汉市,420114,蔡甸区,,商务住宅;产业园区;产业园区,B0FFGCBCU5
114.046955,30.44965,中法生态产业园,北环路与福康路交叉口西100米,湖北省,武汉市,420114,蔡甸区,,商务住宅;产业园区;产业园区,B0FFHB49E9
114.050391,30.433318,佛吉亚(武汉)汽车座椅工业园,常禄大道与福祥路交叉口南200米,湖北省,武汉市,420114,蔡甸区,,商务住宅;产业园区;产业园区,B0FFFEQPA6
114.017353,30.45815,星光同创工业园,G50沪渝高速附近,湖北省,武汉市,420114,蔡甸区,,商务住宅;产业园区;产业园区,B0FFFF9U5M
114.004797,30.449291,武汉普思维科技产业园,,湖北省,武汉市,420114,蔡甸区,,商务住宅;产业园区;产业园区,B0FFLFGA0Z
114.027311,30.459989,星光康隆园,奓山街道奓张星光村工业园东500米,湖北省,武汉市,420114,蔡甸区,,商务住宅;产业园区;产业园区,B0FFFEZOK8
114.005055,30.450333,朴田(武汉)工业园,,湖北省,武汉市,420114,蔡甸区,,商务住宅;产业园区;产业园区,B0FFLFL4PI
114.047346,30.449873,武汉蔡甸经济开发区(福康路),北环路与福康路交叉口西北50米,湖北省,武汉市,420114,蔡甸区,,商务住宅;产业园区;产业园区,B0FFHM19H9
114.04593,30.455357,捷利物流园,大旺路东150米,湖北省,武汉市,420114,蔡甸区,,商务住宅;产业园区;产业园区,B0FFHB4HT6
114.035598,30.452987,武汉嘉家工业园,奓山街大东村,湖北省,武汉市,420114,蔡甸区,,商务住宅;产业园区;产业园区,B001B1ARH1
114.013535,30.458829,星光同兴工业园,G50沪渝高速附近,湖北省,武汉市,420114,蔡甸区,,商务住宅;产业园区;产业园区,B0FFFFBLUX
114.00234,30.451586,奓山街联村工业园,白鹤泉西街奓山街联村工业园,湖北省,武汉市,420114,蔡甸区,,商务住宅;产业园区;产业园区,B0FFFFZ3HY
114.016225,30.460777,星光九鼎工业园D区,,湖北省,武汉市,420114,蔡甸区,,商务住宅;产业园区;产业园区,B0FFJUWEPV
114.052179,30.435291,博力涂装设备产业园,常禄大道与福吉路交叉口西150米,湖北省,武汉市,420114,蔡甸区,,商务住宅;产业园区;产业园区,B001B1CLHP
114.04351,30.45916,小东村工业园,大旺路与G50沪渝高速交叉口北100米,湖北省,武汉市,420114,蔡甸区,,商务住宅;产业园区;产业园区,B001B1AR9V
114.050272,30.436897,纵横交通工业园,福强路西50米,湖北省,武汉市,420114,蔡甸区,,商务住宅;产业园区;产业园区,B001B16QTB
114.049431,30.321366,电子商务产业园,,湖北省,武汉市,420113,汉南区,,商务住宅;产业园区;产业园区,B0FFLF6JQN
114.047552,30.344556,乌金工业园,东荆街道武监高速公路乌金工业园,湖北省,武汉市,420113,汉南区,,商务住宅;产业园区;产业园区,B0FFG2BSFY
114.021382,30.304795,武汉得时利食品工业园,致富路西150米,湖北省,武汉市,420113,汉南区,,商务住宅;产业园区;产业园区,B0FFFF9KRQ
114.049332,30.290625,武汉普菱产业园(幸福园路),幸福园路西50米,湖北省,武汉市,420113,汉南区,,商务住宅;产业园区;产业园区,B0FFFFZ9J0
114.045154,30.299195,汉南区上海产业园,汉南大道北50米,湖北省,武汉市,420113,汉南区,,商务住宅;产业园区;产业园区,B001B17DH2
114.051904,30.283558,日日顺物流(武汉)创新产业园(建设中),幸福园路,湖北省,武汉市,420113,汉南区,,商务住宅;产业园区;产业园区,B0FFLA3RBA
114.051683,30.298756,东风本田汽车零部件工业园,幸福园路与汉南大道交叉口东150米,湖北省,武汉市,420113,汉南区,,商务住宅;产业园区;产业园区,B0FFGILLSA
114.049418,30.30042,霞峰消防科技产业园,幸福工业园9号,湖北省,武汉市,420113,汉南区,,商务住宅;产业园区;产业园区,B001B15XZ6
114.080041,30.628828,澳正工业园,东西湖大道5319号,湖北省,武汉市,420112,东西湖区,,商务住宅;产业园区;产业园区,B0FFF5Y6G2
114.079579,30.628791,奥正科技玻璃产业园,东吴大道南150米,湖北省,武汉市,420112,东西湖区,,商务住宅;产业园区;产业园区,B001B1IN7C
114.080093,30.62727,武汉奥正科技园(田园大道),新城十八路与田园大道交叉口西北150米,湖北省,武汉市,420112,东西湖区,,商务住宅;产业园区;产业园区,B0FFFFKTDB
114.066057,30.630143,武汉优安达电梯工业园,台北二道与高桥四路交叉口东150米,湖北省,武汉市,420112,东西湖区,,商务住宅;产业园区;产业园区,B0FFG4RUM2
114.08493,30.630638,武汉澳卡科技园,新城十七路与航嘉中路交叉口南100米,湖北省,武汉市,420112,东西湖区,,商务住宅;产业园区;产业园区,B0FFHW25VY
114.062544,30.632437,创通工业园,台北二道与高桥三路交叉口东150米,湖北省,武汉市,420112,东西湖区,,商务住宅;产业园区;产业园区,B0FFG9ZN49
114.091569,30.633073,2056物流园,新城十六路与金山大道交汇处东南角(玖通达物流园东400米),湖北省,武汉市,420112,东西湖区,,商务住宅;产业园区;产业园区,B0FFHRY32J
114.083097,30.625332,武汉吴家山经济技术开发区,东新城十八路与田园大道交叉口东北150米,湖北省,武汉市,420112,东西湖区,,商务住宅;产业园区;产业园区,B0FFG2DNHO
114.086928,30.632953,玖通达物流园,新城十六路与航嘉中路交汇处西北角,湖北省,武汉市,420112,东西湖区,,商务住宅;产业园区;产业园区,B0FFHFKYN5
114.085544,30.625443,九州通物流B园区,新城十七路,湖北省,武汉市,420112,东西湖区,,商务住宅;产业园区;产业园区,B0FFLFLJYQ
114.060866,30.633728,武汉花都科技园,台北二道与高桥二路交叉口东南200米,湖北省,武汉市,420112,东西湖区,,商务住宅;产业园区;产业园区,B001B1AQZO
114.060633,30.632435,工业管子城,,湖北省,武汉市,420112,东西湖区,,商务住宅;产业园区;产业园区,B0FFLEJOGB
114.0617,30.635966,京东亚洲一号武汉东西湖物流园,东吴大道与高桥二路交叉口南150米,湖北省,武汉市,420112,东西湖区,,商务住宅;产业园区;产业园区,B0FFHM3S3E
114.095399,30.63208,浩嘉能科技园,新城十五路与航嘉中路交叉口东北200米,湖北省,武汉市,420112,东西湖区,,商务住宅;产业园区;产业园区,B0FFINIF8P
114.097645,30.631055,鑫亚泰产业园,,湖北省,武汉市,420112,东西湖区,,商务住宅;产业园区;产业园区,B0FFGOZECI
114.092212,30.631572,互连港物流园,产业管理处东吴大道新城十五路与航嘉中路交叉口,湖北省,武汉市,420112,东西湖区,,商务住宅;产业园区;产业园区,B0FFIMPGJG
114.09303,30.62281,金合丰工业园,田园大道16号,湖北省,武汉市,420112,东西湖区,,商务住宅;产业园区;产业园区,B0FFGACLQH
114.084971,30.622708,武汉卡行天下物流园,新城十七路旁边,湖北省,武汉市,420112,东西湖区,,商务住宅;产业园区;产业园区,B0FFGHU8H7
114.096517,30.626392,成润工业园,新城十四路,湖北省,武汉市,420112,东西湖区,,商务住宅;产业园区;产业园区,B0FFFF6IJR
114.09166,30.62098,金航工业园,东西湖大道5561号,湖北省,武汉市,420112,东西湖区,,商务住宅;产业园区;产业园区,B001B1CLHV
114.099296,30.63158,畅行天下物流园,吴家山新城十四路,湖北省,武汉市,420112,东西湖区,,商务住宅;产业园区;产业园区,B0FFHEOQEB
114.090889,30.619716,长带工业园,新城十六路与知音湖大道交叉口北100米,湖北省,武汉市,420112,东西湖区,,商务住宅;产业园区;产业园区,B001B0JLS2
114.093029,30.62281,申志威工业园,田园大道16号申志威工业园,湖北省,武汉市,420112,东西湖区,,商务住宅;产业园区;产业园区,B0FFLC6X46
114.085707,30.623583,卡行天下(新城十七路),,湖北省,武汉市,420112,东西湖区,,公司企业;公司;公司|商务住宅;产业园区;产业园区,B0FFINBXEP
114.07077,30.615112,美斯奇工业园,,湖北省,武汉市,420112,东西湖区,,商务住宅;产业园区;产业园区,B0FFGBCFPE
114.061871,30.618874,新汉正西物流园,联盟路与高桥五路交叉口北150米,湖北省,武汉市,420112,东西湖区,,商务住宅;产业园区;产业园区,B0FFGIAIJM
114.097514,30.625439,春辉工业园,吴家山东吴大道20号十四支沟,湖北省,武汉市,420112,东西湖区,,商务住宅;产业园区;产业园区,B001B16T0I
114.05627,30.631169,武汉神州通物流中心,打靶堤,湖北省,武汉市,420112,东西湖区,,商务住宅;产业园区;产业园区,B001B15QJO
114.098208,30.632403,龙邦物流园,新城十四路与金山大道交叉口南150米,湖北省,武汉市,420112,东西湖区,,商务住宅;产业园区;产业园区,B0FFKI4VMG
114.066929,30.63092,优安达科技园,台北二道与高桥四路交叉口东150米,湖北省,武汉市,420112,东西湖区,,商务住宅;产业园区;产业园区,B001B1CK6T
114.056465,30.623411,湖北腾晟远成物流园,革新大道高桥四路和高桥三路,湖北省,武汉市,420112,东西湖区,,商务住宅;产业园区;产业园区,B0FFKR6XB5
114.097833,30.619842,晋昌工业园,东西湖大道5597号,湖北省,武汉市,420112,东西湖区,,商务住宅;产业园区;产业园区,B0FFH1KZR3
114.100224,30.631508,中原物流园,新城十三路与金山大道交汇处,湖北省,武汉市,420112,东西湖区,,商务住宅;产业园区;产业园区,B0FFJBCLZ9
114.07065,30.616726,楚通达物流园,台南二道附近,湖北省,武汉市,420112,东西湖区,,商务住宅;产业园区;产业园区,B0FFH1GWOZ
114.097171,30.623418,中体科技园,田园大道19号,湖北省,武汉市,420112,东西湖区,,商务住宅;产业园区;产业园区,B001B1BO48
114.099927,30.624941,康利工业园,东吴大道与新城十四路交叉口东南150米,湖北省,武汉市,420112,东西湖区,,商务住宅;产业园区;产业园区,B001B0K54O
114.070753,30.618163,武汉神州通物流有限公司山绿物流园,台南二道与惠泽路交叉口东北100米,湖北省,武汉市,420112,东西湖区,,商务住宅;产业园区;产业园区,B0FFGA1L7N
114.099869,30.615925,中楚达物流基地,新城十四路东50米,湖北省,武汉市,420112,东西湖区,,商务住宅;产业园区;产业园区,B0FFH27VIA
114.100364,30.615115,澳汉工业园,革新大道147号附近,湖北省,武汉市,420112,东西湖区,,商务住宅;产业园区;产业园区,B0FFHBLKPZ
114.101409,30.628335,响九州广告产业园,,湖北省,武汉市,420112,东西湖区,,商务住宅;产业园区;产业园区,B0FFIQIPS6
114.063303,30.616945,易安捷物流园,高桥五路与联盟路交叉口,湖北省,武汉市,420112,东西湖区,,商务住宅;产业园区;产业园区,B0FFI85NFJ
114.059058,30.619771,湖北功臣物流港,高桥四路,湖北省,武汉市,420112,东西湖区,,商务住宅;产业园区;产业园区,B0FFJXOODD
114.069243,30.614005,正德兴不锈钢工业园,惠泽路与联盟路交叉口东150米,湖北省,武汉市,420112,东西湖区,,商务住宅;产业园区;产业园区,B0FFHCDJ72
114.095009,30.61575,炬辉工业园,革新大道101号附近,湖北省,武汉市,420112,东西湖区,,商务住宅;产业园区;产业园区,B0FFJWJBF7
114.060108,30.572646,威得圣产业园,经济开发区凤凰山事处凤凰路15号2号楼,湖北省,武汉市,420114,蔡甸区,,商务住宅;产业园区;产业园区,B0FFFFYNSS
114.098162,30.599316,正同产业园,慈惠街北150米,湖北省,武汉市,420112,东西湖区,,商务住宅;产业园区;产业园区,B0FFH2AGRK
114.060707,30.570178,嘉禾工业园,蔡甸经济开发区凤凰山事处,湖北省,武汉市,420114,蔡甸区,,商务住宅;产业园区;产业园区,B001B1H4GA
114.063838,30.60601,吴家山物流园,惠安大道北150米,湖北省,武汉市,420112,东西湖区,,商务住宅;产业园区;产业园区,B0FFHLZ3QE
114.061745,30.568336,凤凰山开发区,,湖北省,武汉市,420114,蔡甸区,,商务住宅;产业园区;产业园区,B0FFG7WRFK
114.068339,30.565795,火凤凰农商互联产业基地,凤凰山经济开发区五贤北路2号1栋,湖北省,武汉市,420114,蔡甸区,,商务住宅;产业园区;产业园区,B0FFK810DW
114.097735,30.605755,盈创动力产业园,兰亭农庄附近,湖北省,武汉市,420112,东西湖区,,商务住宅;产业园区;产业园区,B0FFF3JW4F
114.101925,30.604753,天黎物流园,吴家山中小企业城七期,湖北省,武汉市,420112,东西湖区,,商务住宅;产业园区;产业园区,B0FFINP02P
114.093003,30.606594,滨江物流园,新城十六路附近,湖北省,武汉市,420112,东西湖区,,商务住宅;产业园区;产业园区,B0FFGIXDUD
114.086224,30.534893,中法武汉生态示范城,知音湖大道,湖北省,武汉市,420114,蔡甸区,,商务住宅;产业园区;产业园区,B0FFH4YZLY
114.087944,30.536589,武汉·中国知音城,知音湖大道298号附近,湖北省,武汉市,420114,蔡甸区,,商务住宅;产业园区;产业园区,B0FFFYUL2J
114.101228,30.554031,零二工业园,新天大道493号,湖北省,武汉市,420114,蔡甸区,,商务住宅;产业园区;产业园区,B0FFGFRLJU
114.080358,30.464254,全力四路格力工业园,全力北路与全力四路交叉口北150米,湖北省,武汉市,420114,蔡甸区,,商务住宅;产业园区;产业园区,B0FFH2LUL5
114.079286,30.463149,武汉经济技术开发区,,湖北省,武汉市,420114,蔡甸区,,商务住宅;产业园区;产业园区,B0FFLFDFCV
114.08112,30.463456,格力武汉经济技术开发区,,湖北省,武汉市,420114,蔡甸区,,商务住宅;产业园区;产业园区,B0FFLG77TM
114.055892,30.502881,武汉天鹅湖青年创业园,大沌公路104号附近,湖北省,武汉市,420114,蔡甸区,大集,商务住宅;产业园区;产业园区,B0FFHBB558
114.08184,30.46366,格力电器武汉产业园,全力三路与全力北路交叉口西150米,湖北省,武汉市,420114,蔡甸区,,商务住宅;产业园区;产业园区,B0FFGABVFW
114.098412,30.46546,薛峰民营工业园,幸福公寓七区薛峰民营工业园,湖北省,武汉市,420114,蔡甸区,,商务住宅;产业园区;产业园区,B0FFL2U6G6
114.059588,30.502677,普泽天工业园,天鹅湖大道114号,湖北省,武汉市,420114,蔡甸区,,商务住宅;产业园区;产业园区,B0FFHIYT2K
114.097512,30.465366,武汉经济技术开发区民营科技工业园7区,全力一路与全力北路交叉口东南200米,湖北省,武汉市,420114,蔡甸区,,商务住宅;产业园区;产业园区,B0FFF3OS7Q
114.076397,30.436646,银泰科技工业园(龙王一路),经济技术开发区龙凤路9号龙王工业园,湖北省,武汉市,420114,蔡甸区,,商务住宅;产业园区;产业园区,B001B16NLP
114.07311,30.439815,武汉昱申翔物流园,龙凤路与龙王路交叉口西150米,湖北省,武汉市,420114,蔡甸区,,商务住宅;产业园区;产业园区,B0FFHB80W3
114.079472,30.442423,万向武汉工业园,全力四路9号,湖北省,武汉市,420114,蔡甸区,,商务住宅;产业园区;产业园区,B001B19IGS
114.073738,30.440187,昱申翔物流产业园段,龙凤路与龙王路交叉口西50米,湖北省,武汉市,420114,蔡甸区,,商务住宅;产业园区;产业园区,B001B19IH6
114.072287,30.439357,蔡甸经济开发区龙王工业园,全力五路,湖北省,武汉市,420114,蔡甸区,,商务住宅;产业园区;产业园区,B001B19IH5
114.088868,30.451748,经开·智造2045创新谷,全力二路101号,湖北省,武汉市,420114,蔡甸区,,商务住宅;产业园区;产业园区,B001B16LWG
114.072787,30.442552,博奥工业园,全力五路与朱山湖大道交叉口南150米,湖北省,武汉市,420114,蔡甸区,,商务住宅;产业园区;产业园区,B0FFG2GZBX
114.076148,30.444647,(汉南区)民营科技工业园9区,,湖北省,武汉市,420114,蔡甸区,,商务住宅;产业园区;产业园区,B0FFLFJUF1
114.066399,30.430822,武汉明阳二期园区,常寿路南50米,湖北省,武汉市,420114,蔡甸区,,商务住宅;产业园区;产业园区,B0FFHAGSO9
114.064108,30.440909,正东·和泰科技工业园,常福新城19号,湖北省,武汉市,420114,蔡甸区,,商务住宅;产业园区;产业园区,B0FFF052YT
114.073613,30.425062,军山街科技产业园1区,经济开发区军山科技产业园一区东南门,湖北省,武汉市,420114,蔡甸区,,商务住宅;产业园区;产业园区,B0FFGFT0KE
114.063717,30.437488,数码模武汉汽车产业园,常福工业园19号,湖北省,武汉市,420114,蔡甸区,,商务住宅;产业园区;产业园区,B0FFHAGT02
114.063961,30.433145,京东物流园,常禄大道与福照路东南交叉口,湖北省,武汉市,420114,蔡甸区,,商务住宅;产业园区;产业园区,B0FFHJQ7QC
114.064417,30.431481,京东弗兰西蒂园区,常寿路北50米,湖北省,武汉市,420114,蔡甸区,,商务住宅;产业园区;产业园区,B0FFGS6YY4
114.072978,30.426223,武汉开发区军山街科技产业园,凤亭南路1号,湖北省,武汉市,420114,蔡甸区,,商务住宅;产业园区;产业园区,B0FFGAIMI8
114.063723,30.437469,亿和控股(武汉)科技工业园,常福工业园19号,湖北省,武汉市,420114,蔡甸区,,商务住宅;产业园区;产业园区,B0FFF3ORXN
114.073325,30.423738,武汉市杰伦特工业园,京珠高速公路,湖北省,武汉市,420114,蔡甸区,,商务住宅;产业园区;产业园区,B0FFF3OS22
114.073603,30.425034,军山科技产业园两新组织集聚区,,湖北省,武汉市,420114,蔡甸区,,商务住宅;产业园区;产业园区,B0FFLFEZZN
114.069707,30.445211,武汉经济技术开发区民营科技工业园8区,全力五路7号附近,湖北省,武汉市,420114,蔡甸区,,商务住宅;产业园区;产业园区,B0FFG1AA6M
114.060919,30.433868,诺亚达工业园,常欢大道与福照路交叉口南150米,湖北省,武汉市,420114,蔡甸区,,商务住宅;产业园区;产业园区,B0FFGA92MF
114.070611,30.424968,同创产业园,军山街道凤亭二路,湖北省,武汉市,420114,蔡甸区,,商务住宅;产业园区;产业园区,B0FFJIPKIG
114.07325,30.450895,新的集团(武汉)工业园,,湖北省,武汉市,420114,蔡甸区,,商务住宅;产业园区;产业园区,B0FFLFEHS6
114.076218,30.41988,圣普CSP产业园,经济技术开发区凤亭二路12号,湖北省,武汉市,420114,蔡甸区,,商务住宅;产业园区;产业园区,B0FFF3OS26
114.093026,30.446498,凯沃森科技工业园2期,全力一路与全力二路交叉口北200米,湖北省,武汉市,420114,蔡甸区,,商务住宅;产业园区;产业园区,B0FFGFQT7Y
114.061884,30.440901,正东和泰置业管理有限公司工业园,常福大道与福天路交叉口西150米,湖北省,武汉市,420114,蔡甸区,,商务住宅;产业园区;产业园区,B0FFHAHXO9
114.079024,30.418145,武汉白领科技工业园,爱民路,湖北省,武汉市,420114,蔡甸区,,商务住宅;产业园区;产业园区,B0FFF3OS25
114.056489,30.432694,武汉奥泰芯诚派创新科技园,常寿路北200米,湖北省,武汉市,420114,蔡甸区,,商务住宅;产业园区;产业园区,B0FFFGLRS8
114.059769,30.447585,富桥产业园,北环路与福天路交叉口东北100米富桥产业园西区附近,湖北省,武汉市,420114,蔡甸区,,商务住宅;产业园区;产业园区,B0FFJX5RS6
114.076243,30.417076,神龙东信汽车饰件工业园,经济技术开发区黄陵二路凤凰工业园,湖北省,武汉市,420114,蔡甸区,,商务住宅;产业园区;产业园区,B0FFFFZM7S
114.054313,30.42953,精力仁工业园,常喜路与福吉路交叉口东北150米,湖北省,武汉市,420114,蔡甸区,,商务住宅;产业园区;产业园区,B0FFFFZNQH
114.052897,30.433384,武汉赛尔工业园,玛瑙一路85号,湖北省,武汉市,420114,蔡甸区,,商务住宅;产业园区;产业园区,B0FFFFZNQ7
114.05349,30.430131,丰达(武汉)工业园,,湖北省,武汉市,420114,蔡甸区,,商务住宅;产业园区;产业园区,B0FFLFL8I2
114.05388,30.429078,马斯特二区研发楼,,湖北省,武汉市,420114,蔡甸区,,商务住宅;产业园区;产业园区,B0FFLFL6S1
114.09242,30.445399,凯沃森工业园,全力一路与全力南路交叉口西北150米,湖北省,武汉市,420114,蔡甸区,,商务住宅;产业园区;产业园区,B001B16KZT
114.053571,30.427687,东昊汽车产业,玛瑙一路86号,湖北省,武汉市,420114,蔡甸区,,商务住宅;产业园区;产业园区,B0FFGAL3KK
114.053395,30.427098,武汉光辉迈特常福工业园,檀黄公路与福吉路交叉口东北150米,湖北省,武汉市,420114,蔡甸区,,商务住宅;产业园区;产业园区,B0FFFFZNQD
114.077879,30.412034,军山创业园,经济技术开发区军山街,湖北省,武汉市,420114,蔡甸区,,商务住宅;产业园区;产业园区,B0FFF3ORLK
114.069098,30.458595,武汉白领丽人工业园,经济开发区沌口街道后官湖大道546号,湖北省,武汉市,420114,蔡甸区,,商务住宅;产业园区;产业园区,B0FFGAHFCS
114.054084,30.433742,宏达物流园,常禄大道与福吉路交叉口南200米,湖北省,武汉市,420114,蔡甸区,,商务住宅;产业园区;产业园区,B0FFJTS6SV
114.074793,30.459877,武汉经济开发区创新智慧产业园,,湖北省,武汉市,420114,蔡甸区,,商务住宅;产业园区;产业园区,B0FFLG6LTX
114.077444,30.460504,鸿图节能环保产业园,经济开发区全力四路07号,湖北省,武汉市,420114,蔡甸区,,商务住宅;产业园区;产业园区,B001B16WE7
114.089466,30.460847,武汉商学院大学生创业园,全力二路附近,湖北省,武汉市,420114,蔡甸区,,商务住宅;产业园区;产业园区,B0FFK89LU6
114.066318,30.460144,武汉经济技术开发区民营科技工业园六区,,湖北省,武汉市,420114,蔡甸区,,商务住宅;产业园区;产业园区,B0FFFYXDWV
114.053336,30.415095,武汉经济技术开发区军山科技产业园三区,凤亭五路,湖北省,武汉市,420114,蔡甸区,,商务住宅;产业园区;产业园区,B0FFLE4FRI
114.063354,30.400195,凤凰工业园4期,官莲湖大道西100米,湖北省,武汉市,420114,蔡甸区,,商务住宅;产业园区;产业园区,B0FFF3ORLL
114.069952,30.409334,日日顺物流武汉产业园(建设中),,湖北省,武汉市,420114,蔡甸区,,商务住宅;产业园区;产业园区,B0FFGB65XK
114.079433,30.337287,同济堂汉南产业园,兴四路,湖北省,武汉市,420113,汉南区,,商务住宅;产业园区;产业园区,B0FFF3ORCY
114.084264,30.338224,武汉模具工业园,兴四路与兴城大道交叉口西100米,湖北省,武汉市,420113,汉南区,,商务住宅;产业园区;产业园区,B001B1AR16
114.081909,30.338781,华顶工业园(兴三路),兴城大道兴四路,湖北省,武汉市,420113,汉南区,,商务住宅;产业园区;产业园区,B0FFGR3XGM
114.080755,30.329745,洁力工业园,兴二路248号洁力工业园,湖北省,武汉市,420113,汉南区,,商务住宅;产业园区;产业园区,B0FFLC64AV
114.078619,30.332263,联东U谷武汉经开科技创新谷(建设中),汉武国际城对面,湖北省,武汉市,420113,汉南区,,商务住宅;产业园区;产业园区,B0FFKJIMLS
114.081143,30.341765,华立信工业园,汉南经济开发区滨河大道,湖北省,武汉市,420113,汉南区,,商务住宅;产业园区;产业园区,B0FFGIOODL
114.084806,30.333332,武汉经济技术开放区,兴三路240附近,湖北省,武汉市,420113,汉南区,,商务住宅;产业园区;产业园区,B0FFHM7JI3
114.084838,30.333394,汽车及零部件产业园,兴三路258号财茂大厦武汉经济开发区,湖北省,武汉市,420113,汉南区,,商务住宅;产业园区;产业园区,B0FFH2BEJK
114.08677,30.331276,武汉中原长江科技园,兴三路231号,湖北省,武汉市,420113,汉南区,,商务住宅;产业园区;产业园区,B001B0K40Y
114.087266,30.334741,武汉高源科技园,汉南大道1481号,湖北省,武汉市,420113,汉南区,,商务住宅;产业园区;产业园区,B0FFGJRIEU
114.090199,30.336761,光彩武汉新区华顶工业园,,湖北省,武汉市,420113,汉南区,,商务住宅;产业园区;产业园区,B0FFJXK6JW
114.091275,30.336495,汉南经济开发区,兴四路与汉南大道交叉口东150米,湖北省,武汉市,420113,汉南区,,商务住宅;产业园区;产业园区,B0FFG1V49Q
114.08617,30.33454,高源生物科技发展公司生产基地,纱帽街道兴四路财茂大厦东北150米,湖北省,武汉市,420113,汉南区,,商务住宅;产业园区;产业园区,B0FFF2WCE0
114.094586,30.344265,普天工业园,汉南大道1160号普天工业园,湖北省,武汉市,420113,汉南区,,商务住宅;产业园区;产业园区,B0FFL03GLN
114.093767,30.333159,华顶工业园(兴盛路),,湖北省,武汉市,420113,汉南区,,商务住宅;产业园区;产业园区,B0FFGARL3T
114.094712,30.329986,华工业园C区,兴盛路220,湖北省,武汉市,420113,汉南区,,商务住宅;产业园区;产业园区,B0FFHWREKY
114.098518,30.33841,长利玻璃工业园(兴盛路),兴盛路226号,湖北省,武汉市,420113,汉南区,,商务住宅;产业园区;产业园区,B001B0JOAA
114.098416,30.350307,青宇工业园,纱帽街道汉南大道1743号青宇工业园,湖北省,武汉市,420113,汉南区,,商务住宅;产业园区;产业园区,B0FFL1SLMG
114.064161,30.313343,中国多肽健康产业园,科技大道与育才路交叉口西北50米,湖北省,武汉市,420113,汉南区,,商务住宅;产业园区;产业园区,B0FFGCGRHN
114.100256,30.354345,武汉经济技术开发(汉南)区,长山路与马影河大道交叉口南100米,湖北省,武汉市,420113,汉南区,,商务住宅;产业园区;产业园区,B0FFH5FIR4
114.062123,30.314317,武汉瑞祥工业园,育才路576号,湖北省,武汉市,420113,汉南区,,商务住宅;产业园区;产业园区,B001B0JZRY
114.075365,30.289702,嘉民汉南物流园,通江二路北50米,湖北省,武汉市,420113,汉南区,,生活服务;物流速递;物流仓储场地|商务住宅;产业园区;产业园区,B0FFH2AYGD
114.06347,30.278751,菜鸟网络武汉汉南园区,通江四路南150米,湖北省,武汉市,420113,汉南区,,商务住宅;产业园区;产业园区,B0FFJP98GO
114.065957,30.274135,通航产业园,通江四路附近,湖北省,武汉市,420113,汉南区,,商务住宅;产业园区;产业园区,B0FFGY5HXA
114.058914,30.283875,华运达物流园,通江三路,湖北省,武汉市,420113,汉南区,,商务住宅;产业园区;产业园区,B0FFLDYMCU
114.065066,30.27157,通用航空及卫星产业园,兴城大道东南侧武汉神鹰飞行俱乐部西南方向约800米,湖北省,武汉市,420113,汉南区,,商务住宅;产业园区;产业园区,B0FFH2B56Q
114.054221,30.308026,波罗金工业园,沙帽幸福工业园,湖北省,武汉市,420113,汉南区,,商务住宅;产业园区;产业园区,B0FFFFZ8VV
114.135103,30.724525,科仁工业园,东湖路,湖北省,武汉市,420112,东西湖区,,商务住宅;产业园区;产业园区,B0FFH5QSLB
114.130515,30.701318,三江产业园,柏泉街道杜公湖西950米,湖北省,武汉市,420112,东西湖区,,商务住宅;产业园区;产业园区,B0FFHINJIT
114.143158,30.695217,东流港工业园,张柏路219号,湖北省,武汉市,420112,东西湖区,,商务住宅;产业园区;产业园区,B0FFG2CH8R
114.140952,30.701059,杜公湖东光工业园,临空港大道与张柏路交叉口东北200米,湖北省,武汉市,420112,东西湖区,,商务住宅;产业园区;产业园区,B0FFI7V38R
114.150203,30.687446,芝友产业园,张柏路西100米,湖北省,武汉市,420112,东西湖区,,商务住宅;产业园区;产业园区,B0FFG0KGA2
114.147809,30.673718,和昌工业园,径河路11号,湖北省,武汉市,420112,东西湖区,径河,商务住宅;产业园区;产业园区,B0FFF2XGY8
114.14197,30.700683,东光工业新城,张柏路218号,湖北省,武汉市,420112,东西湖区,,商务住宅;产业园区;产业园区,B001B15S1V
114.145656,30.701422,宝利工业园,柏泉街道东西湖区张柏路210号宝利工业园,湖北省,武汉市,420112,东西湖区,,商务住宅;产业园区;产业园区,B0FFL9PZ5D
114.11364,30.624467,永盛工业园,东吴大道38号,湖北省,武汉市,420112,东西湖区,,商务住宅;产业园区;产业园区,B001B1CYR3
114.137256,30.612271,武汉吴家山海峡两岸科技产业开发园,吴家山五环大道31号,湖北省,武汉市,420112,东西湖区,,商务住宅;产业园区;产业园区,B001B0IGTR
114.123044,30.61909,捷龙物流园,八方路与田园街交叉口西南50米,湖北省,武汉市,420112,东西湖区,,商务住宅;产业园区;产业园区,B0FFHLWXCA
114.142766,30.640963,大学生创业基地,三店中路124号附近,湖北省,武汉市,420112,东西湖区,三店,商务住宅;产业园区;产业园区,B0FFH4ACDN
114.13983,30.61477,川渝物流园,空港大道与革新大道交叉口东100米,湖北省,武汉市,420112,东西湖区,,商务住宅;产业园区;产业园区,B001B16SVF
114.132414,30.613463,星洲工业园,革新大道373号,湖北省,武汉市,420112,东西湖区,,商务住宅;产业园区;产业园区,B001B09N6G
114.122683,30.619624,湖北汽运汽车后服务产业园,田园街南50米,湖北省,武汉市,420112,东西湖区,,商务住宅;产业园区;产业园区,B0FFJRUTLL
114.144712,30.653742,东风实业武汉工业园,京北一路9号,湖北省,武汉市,420112,东西湖区,,商务住宅;产业园区;产业园区,B001B0K0XN
114.143601,30.651074,德思远工业园,金北一路,湖北省,武汉市,420112,东西湖区,,商务住宅;产业园区;产业园区,B0FFG2RKAP
114.141168,30.65641,信诚达工业园,临空港大道与金北二路交汇处东南200米,湖北省,武汉市,420112,东西湖区,,商务住宅;产业园区;产业园区,B001B0K11B
114.140437,30.652527,台商投资区机电工业园区,东西湖三店吴北路,湖北省,武汉市,420112,东西湖区,,商务住宅;产业园区;产业园区,B0FFG1T5G5
114.109339,30.622607,吉人工业园,田园大道117号,湖北省,武汉市,420112,东西湖区,,商务住宅;产业园区;产业园区,B0FFINIJNK
114.140285,30.65262,三店孚特工业园,径河街道吴北路225号三店孚特工业园,湖北省,武汉市,420112,东西湖区,,商务住宅;产业园区;产业园区,B0FFL9AMDO
114.140991,30.653332,汉口吴家山工业园,三店中路西150米,湖北省,武汉市,420112,东西湖区,,商务住宅;产业园区;产业园区,B0FFI7MIV1
114.106427,30.62667,梧桐园,新城十二路北100米鑫正建材斜对面,湖北省,武汉市,420112,东西湖区,,商务住宅;产业园区;产业园区,B0FFJ43SSE
114.145937,30.652567,慈凯工业园,金北一路三店学校对面,湖北省,武汉市,420112,东西湖区,,商务住宅;产业园区;产业园区,B0FFG29RW2
114.133291,30.613872,驾校训练场工业园内,六顺路与革新大道交叉口北100米,湖北省,武汉市,420112,东西湖区,,商务住宅;产业园区;产业园区,B0FFHNEDE4
114.118861,30.615176,汉联物流园C区,东西湖大道附近,湖北省,武汉市,420112,东西湖区,,商务住宅;产业园区;产业园区,B0FFJRSOVB
114.104298,30.622917,科迈工业园,田园大道61号,湖北省,武汉市,420112,东西湖区,,商务住宅;产业园区;产业园区,B001B1D388
114.136669,30.612819,湖北合一创业园,革新大道574号,湖北省,武汉市,420112,东西湖区,,商务住宅;产业园区;产业园区,B0FFFFP5OJ
114.119802,30.614186,汉联物流园D区,东西湖大道6079附近,湖北省,武汉市,420112,东西湖区,,商务住宅;产业园区;产业园区,B0FFJRVJYD
114.128245,30.613271,伊贝产业孵化园,吴家山街道海峡创业城一期17楼伊贝产业孵化园,湖北省,武汉市,420112,东西湖区,,商务住宅;产业园区;产业园区,B0FFLCE8JK
114.125188,30.611609,汇春工业园,海峡两岸科技产业管理处六顺路南70号,湖北省,武汉市,420112,东西湖区,,商务住宅;产业园区;产业园区,B0FFG1PF1R
114.12448,30.611615,金威工业园,革新大道626号,湖北省,武汉市,420112,东西湖区,,商务住宅;产业园区;产业园区,B0FFFVGEPT
114.118072,30.61288,风帆科技园,九通西路与革新大道交叉口西北150米,湖北省,武汉市,420112,东西湖区,,商务住宅;产业园区;产业园区,B0FFINCMAH
114.139673,30.651441,武汉临空港开发区,临空港大道与金北一路交叉口东北200米,湖北省,武汉市,420112,东西湖区,,商务住宅;产业园区;产业园区,B0FFGAJ6VJ
114.130482,30.612066,盛世华中国际茶文化产业城,革新大道570号,湖北省,武汉市,420112,东西湖区,,商务住宅;产业园区;产业园区,B0FFFFP6L2
114.105305,30.62979,国利华通产业园(建设中),,湖北省,武汉市,420112,东西湖区,,商务住宅;产业园区;产业园区,B0FFJC07MS
114.136626,30.612248,百信创业园,临空港大道与革新大道交叉口西南150米,湖北省,武汉市,420112,东西湖区,,商务住宅;产业园区;产业园区,B0FFINOKEN
114.119541,30.615157,汉联物流超市园区,东西湖大道6048号,湖北省,武汉市,420112,东西湖区,,商务住宅;产业园区;产业园区,B0FFFGM0J7
114.148899,30.655187,武汉矽感光电产业园,吴家山经济开发区金北一路1号,湖北省,武汉市,420112,东西湖区,,商务住宅;产业园区;产业园区,B0FFGFQKQI
114.119015,30.61142,亿品物流园,革新大道516号,湖北省,武汉市,420112,东西湖区,,商务住宅;产业园区;产业园区,B0FFL6P5Y3
114.12391,30.613265,湖北功臣物流园,革新大道363号附近,湖北省,武汉市,420112,东西湖区,,商务住宅;产业园区;产业园区,B0FFG7EMNK
114.102436,30.613798,首拓汽车园,新城十三路与革新大道交叉口西北150米,湖北省,武汉市,420112,东西湖区,,商务住宅;产业园区;产业园区,B0FFH283WW
114.119119,30.611587,佳利物流园,革新大道516号,湖北省,武汉市,420112,东西湖区,,商务住宅;产业园区;产业园区,B0FFGA4TF9
114.129881,30.612474,西谷568,革新大道570号,湖北省,武汉市,420112,东西湖区,,商务住宅;产业园区;产业园区,B0FFGOA9OT
114.141541,30.61385,广利物流园(四明路),东西湖大道21号汇通物流后门,湖北省,武汉市,420112,东西湖区,,商务住宅;产业园区;产业园区,B001B1CKCU
114.102905,30.612482,武汉吴家山台商投资区,革新大道,湖北省,武汉市,420112,东西湖区,,商务住宅;产业园区;产业园区,B0FFL9JFU0
114.106336,30.622706,武汉升华工业园,田园大道101号,湖北省,武汉市,420112,东西湖区,,商务住宅;产业园区;产业园区,B001B1DDR0
114.141523,30.599211,武汉宏昌物流中心,吴家山朝阳路103号,湖北省,武汉市,420112,东西湖区,,商务住宅;产业园区;产业园区,B0FFFFP64S
114.14692,30.585531,永丰街四台创业园,襄河堤附近,湖北省,武汉市,420105,汉阳区,,商务住宅;产业园区;产业园区,B001B0JM1P
114.117725,30.588558,漳河口工业园,襄河堤漳河口工业园附近,湖北省,武汉市,420114,蔡甸区,,商务住宅;产业园区;产业园区,B001B0JLJG
114.107222,30.604239,龙鑫工业园,九通路13号,湖北省,武汉市,420112,东西湖区,,商务住宅;产业园区;产业园区,B001B0K35M
114.133114,30.610489,吉利工业园,六顺南路68,湖北省,武汉市,420112,东西湖区,,商务住宅;产业园区;产业园区,B001B0JM9K
114.129928,30.601255,爱立德产业园,惠安大道811号,湖北省,武汉市,420112,东西湖区,,商务住宅;产业园区;产业园区,B0FFF3ORFH
114.130695,30.609367,海峡IBD创业城2期,七雄路9号,湖北省,武汉市,420112,东西湖区,,商务住宅;产业园区;产业园区,B001B0JIL1
114.122012,30.600977,爱立德物流园,惠安大道801号,湖北省,武汉市,420112,东西湖区,,商务住宅;产业园区;产业园区,B0FFF3ORFK
114.129939,30.600201,爱立德多功能产业园,,湖北省,武汉市,420112,东西湖区,,商务住宅;产业园区;产业园区,B0FFLET777
114.123775,30.601022,龙鑫正大物流园,,湖北省,武汉市,420112,东西湖区,,商务住宅;产业园区;产业园区,B0FFHP5WPO
114.131963,30.602232,劲旺工业园,惠安大道,湖北省,武汉市,420112,东西湖区,,商务住宅;产业园区;产业园区,B0FFGBFHZW
114.132791,30.600789,红与铂企业中心,惠安大道813号,湖北省,武汉市,420112,东西湖区,,商务住宅;产业园区;产业园区,B001B16RYY
114.136299,30.602054,慈惠工业园,台商开发区,湖北省,武汉市,420112,东西湖区,,商务住宅;产业园区;产业园区,B0FFG1JK9B
114.120157,30.60324,皇城科技园,九通路西50米,湖北省,武汉市,420112,东西湖区,,商务住宅;产业园区;产业园区,B0FFGFQYWK
114.14693,30.585651,麦味香工业园,四台工业园麦味香工业园,湖北省,武汉市,420105,汉阳区,,商务住宅;产业园区;产业园区,B0FFLBZ8B8
114.14693,30.585651,四台百乐工业园,四台一路,湖北省,武汉市,420105,汉阳区,,商务住宅;产业园区;产业园区,B0FFLEDL58
114.128492,30.607547,武汉鑫斯特工业园,七雄路与团结街交汇处西南150米,湖北省,武汉市,420112,东西湖区,,商务住宅;产业园区;产业园区,B001B1DG36
114.115149,30.602685,银湖科技产业开发园,创新路东150米,湖北省,武汉市,420112,东西湖区,,商务住宅;产业园区;产业园区,B0FFG2BR0O
114.149737,30.578894,祺隆工业园,永丰街办事处四台工业园四台四路47号,湖北省,武汉市,420105,汉阳区,,商务住宅;产业园区;产业园区,B0FFGFXCTP
114.128554,30.606262,天地源,团结街与裕东路交叉口南200米,湖北省,武汉市,420112,东西湖区,,商务住宅;产业园区;产业园区,B0FFGFR71G
114.11995,30.605362,六顺衡器生产基地,九通路西100米,湖北省,武汉市,420112,东西湖区,,商务住宅;产业园区;产业园区,B0FFHMDKKX
114.138222,30.603251,怡兴产业园,五环路11号附近,湖北省,武汉市,420112,东西湖区,,商务住宅;产业园区;产业园区,B0FFJT85EI
114.118391,30.605524,华源晨泰产业园,慈惠街九通路11号中小企业城22栋,湖北省,武汉市,420112,东西湖区,,商务住宅;产业园区;产业园区,B0FFHSTCV0
114.150976,30.578923,圣钧元华工业园,四台工业园四台步行街,湖北省,武汉市,420105,汉阳区,,商务住宅;产业园区;产业园区,B0FFFF9N2F
114.133344,30.601833,武汉群兴汽车工业园,,湖北省,武汉市,420112,东西湖区,,商务住宅;产业园区;产业园区,B0FFI7OGH1
114.148951,30.58447,罗氏传媒(武汉)展览制作工业园,四台三路8号附近,湖北省,武汉市,420105,汉阳区,,商务住宅;产业园区;产业园区,B0FFGWML6J
114.128222,30.60864,旭东科技园,海峡两岸科技产业管理处海峡两岸科技产业管理处团结街495号,湖北省,武汉市,420112,东西湖区,,商务住宅;产业园区;产业园区,B0FFHTLYFV
114.11423,30.605144,武汉中小企业城(团结街),九通路11号,湖北省,武汉市,420112,东西湖区,,商务住宅;产业园区;产业园区,B001B0JLQA
114.130988,30.608915,银湖海峡产业园,团结街361号附近,湖北省,武汉市,420112,东西湖区,,商务住宅;产业园区;产业园区,B0FFF3TAHQ
114.124357,30.603971,天黎九通物流园,九通路9号,湖北省,武汉市,420112,东西湖区,,商务住宅;产业园区;产业园区,B0FFG76HMB
114.15155,30.576988,黄鹤工业园,什湖大道西200米,湖北省,武汉市,420105,汉阳区,,商务住宅;产业园区;产业园区,B0FFF04GRY
114.122262,30.609091,武汉致远(九通)物流园,九通路一号,湖北省,武汉市,420112,东西湖区,,商务住宅;产业园区;产业园区,B0FFGFR7JT
114.149348,30.580245,黄金口都市工业园区四台创业园,四台四路与四台大道交叉口西50米,湖北省,武汉市,420105,汉阳区,,商务住宅;产业园区;产业园区,B0FFHMV6OZ
114.152263,30.577271,星通工业园,什湖大道与百威西路交叉口西北150米,湖北省,武汉市,420105,汉阳区,,商务住宅;产业园区;产业园区,B0FFFF6MZV
114.12935,30.608256,鑫斯特产业园,,湖北省,武汉市,420112,东西湖区,,商务住宅;产业园区;产业园区,B0FFLEO2ZR
114.133227,30.609471,东旭工业园,团结街633号,湖北省,武汉市,420112,东西湖区,,商务住宅;产业园区;产业园区,B0FFG2RFH4
114.130531,30.610605,海峡·国际企业城,七雄路东150米,湖北省,武汉市,420112,东西湖区,,商务住宅;产业园区;产业园区,B0FFF4HYYN
114.150141,30.577023,四台服装产业园,四台创业园77号,湖北省,武汉市,420105,汉阳区,,商务住宅;产业园区;产业园区,B001B1AQT7
114.127421,30.610819,华润涂料物流园,七雄西路10号,湖北省,武汉市,420112,东西湖区,,商务住宅;产业园区;产业园区,B0FFH8SB6H
114.111397,30.607466,力地液压工业园,四环线入口与团结大道交叉口西100米,湖北省,武汉市,420112,东西湖区,,商务住宅;产业园区;产业园区,B0FFG2C31B
114.117971,30.608432,新地标工业园,团结街,湖北省,武汉市,420112,东西湖区,,商务住宅;产业园区;产业园区,B0FFL8349C
114.126651,30.610797,东西湖区龙祥工业园,七雄西路12号,湖北省,武汉市,420112,东西湖区,,商务住宅;产业园区;产业园区,B0FFL8F2V5
114.108537,30.607113,普斯科技创业园2期,团结大道南100米,湖北省,武汉市,420112,东西湖区,,商务住宅;产业园区;产业园区,B0FFH3M6PT
114.130446,30.609104,武汉临空港经济技术开发区,团结街357附近,湖北省,武汉市,420112,东西湖区,,商务住宅;产业园区;产业园区,B0FFJRUNXN
114.14945,30.578973,武汉坤荣工业园,四台四路63号A栋,湖北省,武汉市,420105,汉阳区,,商务住宅;产业园区;产业园区,B0FFHIZBIR
114.105911,30.607158,武汉天新工业园,团结街218,湖北省,武汉市,420112,东西湖区,,商务住宅;产业园区;产业园区,B0FFH1YP03
114.120336,30.609545,众德九州物流园,九通路与团结街交叉口西北200米,湖北省,武汉市,420112,东西湖区,,商务住宅;产业园区;产业园区,B0FFI7W0YO
114.131503,30.609041,海峡两岸青年创业基地,七雄路9号,湖北省,武汉市,420112,东西湖区,,商务住宅;产业园区;产业园区,B0FFJ0HLDS
114.1505,30.583058,武汉瑞联,永丰街四台四路76号(瑞联创业园),湖北省,武汉市,420105,汉阳区,,商务住宅;产业园区;产业园区,B0FFF2U2AN
114.103638,30.563177,中法武汉生态示范城,汉蔡高速,湖北省,武汉市,420114,蔡甸区,,商务住宅;产业园区;产业园区,B0FFHEJ4ON
114.123576,30.552619,安通行产业园,汉阳大道北100米,湖北省,武汉市,420114,蔡甸区,,商务住宅;产业园区;产业园区,B0FFINNYD1
114.147667,30.553342,汉阳区徐湾工业园,徐湾村48号,湖北省,武汉市,420105,汉阳区,,商务住宅;产业园区;产业园区,B0FFH1IIQQ
114.150225,30.556234,三眼桥工业园,S104(汉阳大道),湖北省,武汉市,420105,汉阳区,,商务住宅;产业园区;产业园区,B0FFG2GVSM
114.150991,30.556835,董家店工业园,董家店村汉阳大道,湖北省,武汉市,420105,汉阳区,,商务住宅;产业园区;产业园区,B0FFFSBZBT
114.148921,30.551967,永丰街绿岛农业休闲创业园,永丰街三眼桥村董湾特,湖北省,武汉市,420105,汉阳区,,商务住宅;产业园区;产业园区,B001B1D353
114.131564,30.477907,湖北科信医药产业园,海滨城路16号附近,湖北省,武汉市,420114,蔡甸区,,商务住宅;产业园区;产业园区,B0FFIQX442
114.131207,30.475603,湖北东峻工业园,经济技术开发区后官湖大道88号,湖北省,武汉市,420114,蔡甸区,,商务住宅;产业园区;产业园区,B001B0ITIN
114.129942,30.471202,银泰科技工业园(枫树一路),枫树一路52号,湖北省,武汉市,420114,蔡甸区,沌口,商务住宅;产业园区;产业园区,B001B04C6A
114.13293,30.475307,湖北东峻实业集团(东南1门),后官湖大道66附近,湖北省,武汉市,420114,蔡甸区,,商务住宅;产业园区;产业园区,B0FFHFVKJ4
114.147231,30.462766,伊利工业园,沌口街街道莲湖路35号,湖北省,武汉市,420114,蔡甸区,沌口,商务住宅;产业园区;产业园区,B001B09PB4
114.124786,30.467,拜尔斯道夫工业园,东风大道512号,湖北省,武汉市,420114,蔡甸区,沌口,商务住宅;产业园区;产业园区,B0FFFEP66I
114.143144,30.476675,武汉开发区先进制造产业区,经济开发区沌口街道东风大道158号武汉开发区,湖北省,武汉市,420114,蔡甸区,沌口,商务住宅;产业园区;产业园区,B0FFI31AG5
114.12389,30.463443,武汉经济技术开发区民营科技工业园2区,枫树二路81号,湖北省,武汉市,420114,蔡甸区,,商务住宅;产业园区;产业园区,B001B16LZJ
114.149741,30.478795,东风大道民营工业园,东风大道高架桥与车城南路交叉口东南150米,湖北省,武汉市,420114,蔡甸区,沌口,商务住宅;产业园区;产业园区,B0FFIJZN48
114.128786,30.465377,武汉同佳科技园,恒通路16号,湖北省,武汉市,420114,蔡甸区,沌口,商务住宅;产业园区;产业园区,B0FFG84LN1
114.145888,30.478599,武汉经济技术开发区民营科技工业园,车城南路81号,湖北省,武汉市,420114,蔡甸区,沌口,商务住宅;产业园区;产业园区,B0FFHAG9N2
114.134434,30.463947,武汉经济技术开发区民营科技工业园五区,珠山湖大道196号,湖北省,武汉市,420114,蔡甸区,沌口,商务住宅;产业园区;产业园区,B001B0I6UQ
114.137477,30.476219,武汉今晨工业园,东荆河路558号,湖北省,武汉市,420114,蔡甸区,沌口,商务住宅;产业园区;产业园区,B001B16LHM
114.130079,30.462368,奥福多工业园,沌口办事处珠山湖大道230号,湖北省,武汉市,420114,蔡甸区,沌口,商务住宅;产业园区;产业园区,B0FFF9L4AY
114.116647,30.465154,四方交通物流东区,枫树四路70-71号,湖北省,武汉市,420114,蔡甸区,,生活服务;物流速递;物流仓储场地|商务住宅;产业园区;产业园区,B0FFHUFZFZ
114.126028,30.463958,民营科技工业园(二)区办公室,经济技术开发区枫树二路81号,湖北省,武汉市,420114,蔡甸区,,商务住宅;产业园区;产业园区,B0FFG1DLPB
114.144679,30.464671,昌华工业园,西北湖四路16号,湖北省,武汉市,420114,蔡甸区,沌口,商务住宅;产业园区;产业园区,B0FFG2A2IU
114.135397,30.46398,武汉洪山广源工贸有限公司商贸产业园,珠山湖大道196号,湖北省,武汉市,420114,蔡甸区,沌口,商务住宅;产业园区;产业园区,B0FFGFPAE8
114.107383,30.464128,东风李尔工业园,后官湖大道与枫树五路交叉口西北150米,湖北省,武汉市,420114,蔡甸区,,商务住宅;产业园区;产业园区,B0FFGB5AQF
114.149828,30.461845,湖北工建科技产业园,莲湖路西50米,湖北省,武汉市,420114,蔡甸区,沌口,商务住宅;产业园区;产业园区,B0FFK809TS
114.116403,30.464428,四方交通物流,枫树四路70号,湖北省,武汉市,420114,蔡甸区,,商务住宅;产业园区;产业园区,B001B0JWXQ
114.152161,30.468908,武汉振邦食品包装工业园,创业路112号,湖北省,武汉市,420114,蔡甸区,沌口,商务住宅;产业园区;产业园区,B001B05BF0
114.12218,30.445509,长丰工业园,枫树新路58号,湖北省,武汉市,420114,蔡甸区,,商务住宅;产业园区;产业园区,B0FFIP6T2H
114.116973,30.448434,李仙工业园,枫树五路18号附近,湖北省,武汉市,420114,蔡甸区,,商务住宅;产业园区;产业园区,B001B16VUT
114.122415,30.44531,武汉经济开发区民营工业长丰园6区,沌口街办事处武汉经济技术开发区枫树新路,湖北省,武汉市,420114,蔡甸区,,商务住宅;产业园区;产业园区,B001B1HCBR
114.130027,30.453377,猫人(国际)时尚产业园,枫树新路8号,湖北省,武汉市,420114,蔡甸区,,商务住宅;产业园区;产业园区,B001B1HCDU
114.151214,30.460591,环宇工业园,莲湖路11号,湖北省,武汉市,420114,蔡甸区,沌口,商务住宅;产业园区;产业园区,B001B0JNVK
114.149287,30.45943,海尔工业园(东荆河路),东荆河路与四环线交叉口东南150米,湖北省,武汉市,420114,蔡甸区,沌口,商务住宅;产业园区;产业园区,B0FFGNLJ2L
114.115349,30.45797,美的集团武汉工业园,珠山湖大道351号,湖北省,武汉市,420114,蔡甸区,,商务住宅;产业园区;产业园区,B001B1D3T8
114.137051,30.309924,金口科技工业园,102省道东100米,湖北省,武汉市,420115,江夏区,,商务住宅;产业园区;产业园区,B0FFG2BK6F
114.17189,30.683503,泰和工业园,柏银路西50米,湖北省,武汉市,420112,东西湖区,,商务住宅;产业园区;产业园区,B001B1COKR
114.17352,30.68573,耐信工业园,银柏路68号,湖北省,武汉市,420112,东西湖区,,商务住宅;产业园区;产业园区,B0FFGAEUWR
114.174562,30.677708,兴佳成工业园,环湖中路16号,湖北省,武汉市,420112,东西湖区,,商务住宅;产业园区;产业园区,B0FFGFQWEM
114.16863,30.678289,欧朋科技园,径河街十字东街142号,湖北省,武汉市,420112,东西湖区,,商务住宅;产业园区;产业园区,B0FFF2P5TZ
114.172305,30.675588,武汉杰睿达产业园,环湖中路,湖北省,武汉市,420112,东西湖区,,商务住宅;产业园区;产业园区,B0FFG8D5H9
114.17522,30.675957,武汉市建桥印包工业园,环湖中路,湖北省,武汉市,420112,东西湖区,,商务住宅;产业园区;产业园区,B0FFG9WKIO
114.171203,30.673342,金银湖生态企业城,径河路与田园东路交叉口东北100米,湖北省,武汉市,420112,东西湖区,,商务住宅;产业园区;产业园区,B0FFFAQ10A
114.171605,30.677823,兴宏业工业园,金银湖环湖中路18号(环湖中路与银柏路交汇处),湖北省,武汉市,420112,东西湖区,,商务住宅;产业园区;产业园区,B0FFF39FX4
114.158535,30.673919,家华工业园,径河路19号,湖北省,武汉市,420112,东西湖区,,商务住宅;产业园区;产业园区,B0FFF2AHN2
114.157687,30.676339,佰瑞·五环工业园,五环大道,湖北省,武汉市,420112,东西湖区,,商务住宅;产业园区;产业园区,B0FFFE42EV
114.159563,30.674012,武汉艾特产业园,径河路21号,湖北省,武汉市,420112,东西湖区,,商务住宅;产业园区;产业园区,B0FFGFQRLM
114.157448,30.673908,金地工业园,径河路17号,湖北省,武汉市,420112,东西湖区,,商务住宅;产业园区;产业园区,B0FFF3VT3E
114.155361,30.676369,湖北盛佳工业园,径河中路北50米,湖北省,武汉市,420112,东西湖区,径河,商务住宅;产业园区;产业园区,B0FFGFTEX8
114.168384,30.666673,谦和产业园,环湖中路西150米,湖北省,武汉市,420112,东西湖区,,商务住宅;产业园区;产业园区,B0FFGJC4Z1
114.168147,30.665394,台湾源源鑫国际工业园,柏环一路8号,湖北省,武汉市,420112,东西湖区,,商务住宅;产业园区;产业园区,B0FFF03WLU
114.159582,30.672977,鸿通达物流园,塔西南泾河路21号,湖北省,武汉市,420112,东西湖区,,商务住宅;产业园区;产业园区,B0FFG9WTEY
114.169162,30.634093,金海工业园,金山大道南50米,湖北省,武汉市,420112,东西湖区,,商务住宅;产业园区;产业园区,B001B0J1VJ
114.164483,30.635573,海口工业园,海口二路附近,湖北省,武汉市,420112,东西湖区,,商务住宅;产业园区;产业园区,B001B0JMIS
114.180753,30.634828,凌云科技园,,湖北省,武汉市,420112,东西湖区,,商务住宅;产业园区;产业园区,B0FFJKI5O6
114.16273,30.639613,黄鹤楼科技园,海口二路1号,湖北省,武汉市,420112,东西湖区,,商务住宅;产业园区;产业园区,B001B0K4P2
114.164955,30.639742,海口电力工业园,新桥三路与海口三路交叉口西南100米,湖北省,武汉市,420112,东西湖区,,商务住宅;产业园区;产业园区,B0FFG281FR
114.164286,30.637926,斐丽佳工业园,海口二路8号,湖北省,武汉市,420112,东西湖区,,商务住宅;产业园区;产业园区,B0FFIJXUF1
114.1864,30.615302,华升工业园(古田一路),古田一路66号,湖北省,武汉市,420104,硚口区,古田,商务住宅;产业园区;产业园区,B001B15RKH
114.167266,30.637147,光发科技园,金山大道海口三路1361号,湖北省,武汉市,420112,东西湖区,,商务住宅;产业园区;产业园区,B001B1DFJ4
114.197158,30.629204,小天鹅(武汉)工业园,环湖西路与金银湖南街交叉口北150米,湖北省,武汉市,420112,东西湖区,,商务住宅;产业园区;产业园区,B0FFGFQRZ3
114.187079,30.615862,兴源工业园(暂停营业),古田一路68号,湖北省,武汉市,420104,硚口区,古田,商务住宅;产业园区;产业园区,B001B15RKI
114.198512,30.647034,金银湖创新中心,,湖北省,武汉市,420112,东西湖区,,商务住宅;产业园区;产业园区,B0FFLEPB8Q
114.198034,30.621466,蓝焰物流园,古田二路长丰北垸特1号,湖北省,武汉市,420104,硚口区,,商务住宅;产业园区;产业园区,B0FFHLO544
114.186561,30.616374,家城鑫工业园,古田一路70号,湖北省,武汉市,420104,硚口区,古田,商务住宅;产业园区;产业园区,B0FFL1077R
114.201392,30.635147,鑫桥高科技产业园南区,金银湖南二街南100米,湖北省,武汉市,420112,东西湖区,,商务住宅;产业园区;产业园区,B001B16BEC
114.178641,30.611703,楚隆工业园,长丰大道52号,湖北省,武汉市,420104,硚口区,古田,商务住宅;产业园区;产业园区,B0FFF43HVV
114.196665,30.621383,战友军民融合产业园,三环线,湖北省,武汉市,420104,硚口区,,商务住宅;产业园区;产业园区,B0FFI2ICN8
114.199806,30.629662,武汉格瑞科技园,金银湖南街5号,湖北省,武汉市,420112,东西湖区,,商务住宅;产业园区;产业园区,B001B0JM5M
114.187991,30.614185,国光工业园,古田一路长丰路4号,湖北省,武汉市,420104,硚口区,古田,商务住宅;产业园区;产业园区,B0FFGXFTGP
114.16537,30.614135,额头湾经济工业园区,园博大道与张毕湖路交叉口西南100米,湖北省,武汉市,420104,硚口区,,商务住宅;产业园区;产业园区,B0FFFRVVOD
114.17975,30.611591,东风科技园,长丰大道58号,湖北省,武汉市,420104,硚口区,古田,商务住宅;产业园区;产业园区,B001B08T28
114.190613,30.614777,美江南产业园,长风路13号旁,湖北省,武汉市,420104,硚口区,古田,商务住宅;产业园区;产业园区,B0FFJ96VE5
114.177381,30.611303,明达工业园,长丰大道与长丰大道高架交叉口南150米,湖北省,武汉市,420104,硚口区,古田,商务住宅;产业园区;产业园区,B0FFF3X23P
114.172895,30.613887,武汉市乘丰物流园,长丰大道附近,湖北省,武汉市,420104,硚口区,,商务住宅;产业园区;产业园区,B0FFGK79BN
114.181483,30.611352,兴业工业园,丰帆路与长丰大道高架交叉口东南100米,湖北省,武汉市,420104,硚口区,古田,商务住宅;产业园区;产业园区,B0FFH3XGA5
114.154323,30.617744,顺昌物流园,东西湖大道与市场北一路交叉口西南100米,湖北省,武汉市,420112,东西湖区,,商务住宅;产业园区;产业园区,B0FFH1L7VE
114.187395,30.614035,东风创业园,长丰路4号,湖北省,武汉市,420104,硚口区,古田,商务住宅;产业园区;产业园区,B001B16CFV
114.175547,30.611911,锦虹物流园,长丰大道28号,湖北省,武汉市,420104,硚口区,,商务住宅;产业园区;产业园区,B001B1CYUR
114.173561,30.612013,东丰老四队拜尔园区,长丰街道长丰大道22号,湖北省,武汉市,420104,硚口区,,商务住宅;产业园区;产业园区,B0FFGODV3S
114.188933,30.613265,东风工业,长丰路9号,湖北省,武汉市,420104,硚口区,古田,商务住宅;产业园区;产业园区,B0FFGJ8RDE
114.201998,30.614886,国家电子商务示范基地,解放大道东50米,湖北省,武汉市,420104,硚口区,古田,商务住宅;产业园区;产业园区,B0FFHNLRCM
114.163643,30.615644,硚口区额头湾村经济工业区,额头湾立交桥附近,湖北省,武汉市,420104,硚口区,,商务住宅;产业园区;产业园区,B001B0JMBS
114.18659,30.616208,嘉诚鑫创业园,古田一路北70号,湖北省,武汉市,420104,硚口区,古田,商务住宅;产业园区;产业园区,B001B16XJG
114.166401,30.568564,黄金口工业园,金色一路附近,湖北省,武汉市,420105,汉阳区,,商务住宅;产业园区;产业园区,B001B16COO
114.191914,30.600404,汉正街都市工业区(解放大道),解放大道41号,湖北省,武汉市,420104,硚口区,古田,商务住宅;产业园区;产业园区,B001B0IVUB
114.167769,30.592956,汉阳智能科技产业园,三环线辅路西150米,湖北省,武汉市,420105,汉阳区,,商务住宅;产业园区;产业园区,B0FFINCN8F
114.166645,30.59299,理想科技工业园,黄金口工业园金花路1号,湖北省,武汉市,420105,汉阳区,,商务住宅;产业园区;产业园区,B0FFFF9XYM
114.163746,30.581897,天鸣工业园,黄金口都市工业园金福路6号,湖北省,武汉市,420105,汉阳区,,商务住宅;产业园区;产业园区,B0FFGWLOTQ
114.172762,30.565238,黄金口都市工业园(建园路),建园路与汉阳大道交叉口西北100米,湖北省,武汉市,420105,汉阳区,,商务住宅;产业园区;产业园区,B001B16BL6
114.174554,30.567021,未来工业园,汉阳大道彭家岭398号,湖北省,武汉市,420105,汉阳区,,商务住宅;产业园区;产业园区,B001B15WWW
114.171839,30.568042,万通工业园,米粮路与金色一路交叉口东南100米,湖北省,武汉市,420105,汉阳区,,商务住宅;产业园区;产业园区,B0FFGWJ20Q
114.155011,30.581773,黄金口服装产业园,什湖大道东100米,湖北省,武汉市,420105,汉阳区,,商务住宅;产业园区;产业园区,B0FFGFPB51
114.191849,30.600382,硚口经济开发区,解放大道东50米,湖北省,武汉市,420104,硚口区,古田,商务住宅;产业园区;产业园区,B0FFG2BZDF
114.155965,30.577484,鑫金龙工业园,永丰街办事处四台工业园,湖北省,武汉市,420105,汉阳区,,商务住宅;产业园区;产业园区,B0FFFFLE42
114.15521,30.579747,四台都市工业园,四台工业园56,湖北省,武汉市,420105,汉阳区,,商务住宅;产业园区;产业园区,B0FFGFPB9A
114.155014,30.578687,银莱服饰工业园,什湖大道东200米,湖北省,武汉市,420105,汉阳区,,商务住宅;产业园区;产业园区,B0FFF2BER0
114.185807,30.604892,古田客运站物流园,南泥湾大道与古田一路交汇处,湖北省,武汉市,420104,硚口区,古田,商务住宅;产业园区;产业园区,B0FFH55USO
114.159331,30.589819,壹加捌物流园,黄金口百威路19号,湖北省,武汉市,420105,汉阳区,,商务住宅;产业园区;产业园区,B0FFIJN9BI
114.155096,30.576596,名仕产业园,15省道汉蔡高速附近,湖北省,武汉市,420105,汉阳区,,商务住宅;产业园区;产业园区,B0FFF337QK
114.153927,30.578409,四台众旺工业园,黄金口四台公业园,湖北省,武汉市,420105,汉阳区,,商务住宅;产业园区;产业园区,B0FFFFBG5M
114.193315,30.564558,超凡工业园,山北湾188号,湖北省,武汉市,420105,汉阳区,,商务住宅;产业园区;产业园区,B001B0JKJ0
114.191888,30.600305,武汉龙工场跨境电商产业园,解放大道41号附近,湖北省,武汉市,420104,硚口区,古田,商务住宅;产业园区;产业园区,B0FFL5BMIY
114.157465,30.579161,百乐工业园,黄金口,湖北省,武汉市,420105,汉阳区,,商务住宅;产业园区;产业园区,B001B1DGB2
114.156128,30.579623,盛鑫工业园,永丰街办事处汉阳区永丰办公室外金花路附近,湖北省,武汉市,420105,汉阳区,,商务住宅;产业园区;产业园区,B001B1AS4X
114.189477,30.608437,恒基工业园,长云路38号,湖北省,武汉市,420104,硚口区,古田,商务住宅;产业园区;产业园区,B001B1CYR4
114.153532,30.578533,景江服装园,什湖大道与四台大道交叉口东南200米,湖北省,武汉市,420105,汉阳区,,商务住宅;产业园区;产业园区,B0FFG02U30
114.181151,30.610233,天湖产业园,长丰大道80号,湖北省,武汉市,420104,硚口区,古田,商务住宅;产业园区;产业园区,B001B0JM6E
114.189134,30.604978,长丰科技产业园西区,南泥湾大道16附近,湖北省,武汉市,420104,硚口区,古田,商务住宅;产业园区;产业园区,B0FFJTILA1
114.1526,30.577412,四台汉江工业园,什湖大道与百威西路交叉口西北150米,湖北省,武汉市,420105,汉阳区,,商务住宅;产业园区;产业园区,B0FFFFKCQ4
114.192484,30.60494,名典屋工业园,丰硕路与长天路交叉口南150米,湖北省,武汉市,420104,硚口区,古田,商务住宅;产业园区;产业园区,B0FFG1ZZFF
114.192171,30.600542,江汉湾·云谷,解放大道41号,湖北省,武汉市,420104,硚口区,古田,商务住宅;产业园区;产业园区,B0FFI2CC80
114.19609,30.604003,汇丰·企业总部,古田二路与南泥湾大道交汇处,湖北省,武汉市,420104,硚口区,古田,商务住宅;产业园区;产业园区,B0FFFZD3MJ
114.187813,30.608321,楚隆工业物流园,古田一路与长云路东200米,湖北省,武汉市,420104,硚口区,古田,商务住宅;产业园区;产业园区,B0FFHJGBF8
114.181684,30.609861,沐丰工业园,长云路6号附近,湖北省,武汉市,420104,硚口区,古田,商务住宅;产业园区;产业园区,B0FFJ96UTB
114.192321,30.607109,新媒体文化创业产业园,丰硕路与长升路交叉口西南100米,湖北省,武汉市,420104,硚口区,古田,商务住宅;产业园区;产业园区,B0FFGAGZI1
114.155098,30.589511,黄金口科技企业孵化基地,上黄金口186号,湖北省,武汉市,420105,汉阳区,,商务住宅;产业园区;产业园区,B001B1DI2D
114.188983,30.609725,财源工业园,长丰大道南100米,湖北省,武汉市,420104,硚口区,古田,商务住宅;产业园区;产业园区,B0FFG9ZZ57
114.153576,30.57899,湖北省武汉市什湖大道景江工业园,永丰街办事处什湖大道,湖北省,武汉市,420105,汉阳区,,商务住宅;产业园区;产业园区,B0FFH1UL2Y
114.190279,30.606651,武汉新工厂工业设计产业园23,铁路大厂一路东200米,湖北省,武汉市,420104,硚口区,古田,商务住宅;产业园区;产业园区,B0FFGQ4DGE
114.197712,30.604726,现代证卡产业园2期,丰逸路与长天路交叉口西北100米,湖北省,武汉市,420104,硚口区,古田,商务住宅;产业园区;产业园区,B0FFG26A2V
114.190005,30.607089,武汉新工厂工业设计产业园24,铁路大厂一路与长康路交叉口东200米,湖北省,武汉市,420104,硚口区,古田,商务住宅;产业园区;产业园区,B0FFGQ4BEV
114.176316,30.5617,科迪赛pvc地板仓储物流园,汉阳大道张湾520号,湖北省,武汉市,420105,汉阳区,,商务住宅;产业园区;产业园区,B0FFHNMD0R
114.190982,30.606697,武汉新工厂工业设计产业园28,丰硕路与长天路交叉口西北200米,湖北省,武汉市,420104,硚口区,古田,商务住宅;产业园区;产业园区,B0FFGQ4DFP
114.164182,30.565947,米粮创业园,孟家铺立交附近,湖北省,武汉市,420105,汉阳区,,商务住宅;产业园区;产业园区,B001B16FXD
114.190996,30.606762,武汉新工厂工业设计产业园27,丰硕路与长天路交叉口西北200米,湖北省,武汉市,420104,硚口区,古田,商务住宅;产业园区;产业园区,B0FFGQ4B4H
114.190045,30.607396,武汉新工厂工业设计产业园11,铁路大厂一路与长康路交叉口东200米,湖北省,武汉市,420104,硚口区,古田,商务住宅;产业园区;产业园区,B0FFGQ4B5X
114.179634,30.610678,汉正街都市工业区(长丰大道),丰帆路与长云路交叉口西北150米,湖北省,武汉市,420104,硚口区,古田,商务住宅;产业园区;产业园区,B0FFGFSYCE
114.190844,30.607494,武汉新工厂工业设计产业园10,丰硕路28号武汉新工厂工业设计产业园附近,湖北省,武汉市,420104,硚口区,古田,商务住宅;产业园区;产业园区,B0FFGQ4B45
114.190781,30.608233,武汉新工厂工业设计产业园8,长云路56号附近,湖北省,武汉市,420104,硚口区,古田,商务住宅;产业园区;产业园区,B0FFGQ4CYP
114.191922,30.60729,武汉新工厂工业设计产业园2B,丰硕路与长升路交叉口西南100米,湖北省,武汉市,420104,硚口区,古田,商务住宅;产业园区;产业园区,B0FFGQ4DTP
114.191222,30.607664,武汉新工厂工业设计产业园2C,丰硕路与长升路交叉口西150米,湖北省,武汉市,420104,硚口区,古田,商务住宅;产业园区;产业园区,B0FFGQ4GHR
114.191117,30.608205,武汉新工厂工业设计产业园5,长云路13-9号附近,湖北省,武汉市,420104,硚口区,古田,商务住宅;产业园区;产业园区,B0FFGQ4AGQ
114.191525,30.608125,武汉新工厂工业设计产业园4,长云路7-8号附近,湖北省,武汉市,420104,硚口区,古田,商务住宅;产业园区;产业园区,B0FFGQ4ACB
114.191259,30.607903,武汉新工厂工业设计产业园2D,长云路7-8号附近,湖北省,武汉市,420104,硚口区,古田,商务住宅;产业园区;产业园区,B0FFGQ4GFL
114.191834,30.608037,武汉新工厂工业设计产业园3,长云路62号附近,湖北省,武汉市,420104,硚口区,古田,商务住宅;产业园区;产业园区,B0FFGQ4DGN
114.185897,30.60745,武汉长江兴邦科技发展公司产业基地,古田一路30号,湖北省,武汉市,420104,硚口区,古田,商务住宅;产业园区;产业园区,B0FFHGPZ60
114.198805,30.605598,合亿达创意园,长升路12号,湖北省,武汉市,420104,硚口区,古田,商务住宅;产业园区;产业园区,B0FFI6SJCC
114.197699,30.599733,环同济大健康科技产业园,古田二路65号,湖北省,武汉市,420104,硚口区,古田,商务住宅;产业园区;产业园区,B0FFKFMARM
114.197866,30.605986,仓小二武汉创业孵化基地,,湖北省,武汉市,420104,硚口区,古田,商务住宅;产业园区;产业园区,B0FFLFK87E
114.197741,30.606015,硚口国家电子商务示范基地,丰茂路与长升路交叉口东南150米,湖北省,武汉市,420104,硚口区,古田,商务住宅;产业园区;产业园区,B0FFFOWA2C
114.18901,30.605308,阿拉旺斯中国生产基地,南泥湾大道61号,湖北省,武汉市,420104,硚口区,古田,商务住宅;产业园区;产业园区,B0FFHLX6XW
114.15278,30.587591,加华科技产业园,永丰街街道琴断口街黄金口3村270号,湖北省,武汉市,420105,汉阳区,,商务住宅;产业园区;产业园区,B0FFIXZB5R
114.153494,30.603521,华航友邦物流园,卢市小学分校附近,湖北省,武汉市,420112,东西湖区,,商务住宅;产业园区;产业园区|公司企业;公司;公司,B0FFFVGFVH
114.202172,30.562781,邹家湾工业园,汉阳大道,湖北省,武汉市,420105,汉阳区,琴断口,商务住宅;产业园区;产业园区,B0FFFS7JKT
114.197754,30.605768,创智园,古田二路长升路10号,湖北省,武汉市,420104,硚口区,古田,商务住宅;产业园区;产业园区,B0FFH3X8ED
114.198688,30.605585,武汉市航侧实业有限责任公司硚口创业基地,古田二路长升路12号(武汉航天城对面原依翎制衣厂),湖北省,武汉市,420104,硚口区,古田,商务住宅;产业园区;产业园区,B0FFL8DGYQ
114.175012,30.54567,武汉汉阳汤山工业园(壹号),陈家嘴桥附近,湖北省,武汉市,420105,汉阳区,,商务住宅;产业园区;产业园区,B001B16GT8
114.184088,30.528787,新华工业园,经济开发区,湖北省,武汉市,420114,蔡甸区,,商务住宅;产业园区;产业园区,B0FFG2F36D
114.16733,30.546131,陈家咀世赋工业园,三环线汉阳大道出口附近,湖北省,武汉市,420105,汉阳区,,商务住宅;产业园区;产业园区,B001B0JKIZ
114.165805,30.542358,罗家咀创业园特8号,永丰街办事处三环线罗家咀创业园附近,湖北省,武汉市,420105,汉阳区,,商务住宅;产业园区;产业园区,B0FFH1KH96
114.164627,30.542659,罗家咀工业园,永丰街,湖北省,武汉市,420105,汉阳区,,商务住宅;产业园区;产业园区,B0FFG2DZY0
114.200714,30.546216,三环汽车工业园,龙阳大道,湖北省,武汉市,420105,汉阳区,,商务住宅;产业园区;产业园区,B001B0JPDF
114.19716,30.545759,5.5医药健康创新园,车友路与陶家岭路交叉口西150米,湖北省,武汉市,420105,汉阳区,,商务住宅;产业园区;产业园区,B0FFHEVR0S
114.158394,30.541506,凌志工业园,大罗家咀199号,湖北省,武汉市,420105,汉阳区,,商务住宅;产业园区;产业园区,B001B17G3Z
114.195994,30.536202,招商创业园,永丰街街道升官渡龙阳大道洛河小城欧亚达国际广场123招商创业园,湖北省,武汉市,420105,汉阳区,,商务住宅;产业园区;产业园区,B0FFL9KPH0
114.196272,30.536344,55家居科技产业园,龙阳大道123号,湖北省,武汉市,420105,汉阳区,,商务住宅;产业园区;产业园区,B0FFK8DT5K
114.196608,30.544149,康达医药保健产业园,康达街74附近,湖北省,武汉市,420105,汉阳区,,商务住宅;产业园区;产业园区,B0FFI9NUFP
114.160482,30.520962,三角湖大学生创业特区,经济技术开发区博学路3号,湖北省,武汉市,420114,蔡甸区,,商务住宅;产业园区;产业园区,B0FFG4JSDK
114.196776,30.545069,陶家岭医药物流园,车友路特8附近,湖北省,武汉市,420105,汉阳区,,商务住宅;产业园区;产业园区,B001B16XP2
114.20071,30.531968,国创星寓样板示范区,芳草二街与芳草西路交叉口东北100米,湖北省,武汉市,420105,汉阳区,,商务住宅;产业园区;产业园区,B0FFJRSFE9
114.200596,30.531763,新阳广场样板示范区,芳草西路,湖北省,武汉市,420105,汉阳区,,商务住宅;产业园区;产业园区,B0FFLC12Z7
114.160483,30.520961,三角湖人才创新创业园区,经济技术开发区博学路3号三角湖大学生创业特区附近,湖北省,武汉市,420114,蔡甸区,,商务住宅;产业园区;产业园区,B0FFGCBBKM
114.166715,30.552651,泓锦工业园,在汉阳三环,湖北省,武汉市,420105,汉阳区,,商务住宅;产业园区;产业园区,B0FFJBQGV3
114.161906,30.557813,永丰街众成创业社区,琴断岭198,湖北省,武汉市,420105,汉阳区,,商务住宅;产业园区;产业园区,B0FFG4LVSK
114.195515,30.525615,完美武汉市经济技术开发区(毓苍岚日用品服务部),金太阳米兰小镇西区8-1-08,湖北省,武汉市,420114,蔡甸区,,商务住宅;产业园区;产业园区,B0FFK87L5T
114.202241,30.54727,汉阳经济开发区,龙阳大道特8号,湖北省,武汉市,420105,汉阳区,,商务住宅;产业园区;产业园区,B001B16BDC
114.197783,30.549032,华航玻璃工业园,龙阳大道隆祥街12号,湖北省,武汉市,420105,汉阳区,,商务住宅;产业园区;产业园区,B001B16FUS
114.1944,30.558472,武汉天睿兴业园,永丰街虾吧咀488号,湖北省,武汉市,420105,汉阳区,,商务住宅;产业园区;产业园区,B001B16WJ3
114.201649,30.550539,汉阳经济发展区,龙阳大道207号附近,湖北省,武汉市,420105,汉阳区,,商务住宅;产业园区;产业园区,B0FFI6A5BU
114.198567,30.550887,知音英才创谷,永丰街办事处隆祥街26号龙阳湖健康谷悦城创新街区,湖北省,武汉市,420105,汉阳区,,商务住宅;产业园区;产业园区,B0FFHVFLUS
114.194504,30.558739,力天玻璃工业园,虾吧咀487号,湖北省,武汉市,420105,汉阳区,,商务住宅;产业园区;产业园区,B001B16CF1
114.177762,30.493371,海尔工业园,经济技术开发区车城东路98号,湖北省,武汉市,420114,蔡甸区,沌口,商务住宅;产业园区;产业园区,B001B04E91
114.167452,30.493437,法国工业园,5号路与神龙大道交叉口北50米,湖北省,武汉市,420114,蔡甸区,沌口,商务住宅;产业园区;产业园区|风景名胜;风景名胜;风景名胜,B0FFG4GPMX
114.156703,30.482958,东方工业园(创业路),创业路67号,湖北省,武汉市,420114,蔡甸区,沌口,商务住宅;产业园区;产业园区,B001B04D66
114.173982,30.476278,成功工业园,沌口经济技术开发区车城东路176号,湖北省,武汉市,420114,蔡甸区,沌口,商务住宅;产业园区;产业园区,B001B0J85E
114.159607,30.488341,武汉经济技术开发区,沌阳大道附近,湖北省,武汉市,420114,蔡甸区,沌口,商务住宅;产业园区;产业园区,B001B19NRI
114.193159,30.475895,民营科技工业园,东风大道武汉经济技术开发区管委会附近,湖北省,武汉市,420114,蔡甸区,沌口,商务住宅;产业园区;产业园区,B001B05BFC
114.175938,30.480773,武汉博瑞通汉捷新能源综合产业园,车城东路248附近,湖北省,武汉市,420114,蔡甸区,沌口,商务住宅;产业园区;产业园区,B0FFKP1FUT
114.168677,30.482967,东风新能源汽车产业园,沌阳大道339号,湖北省,武汉市,420114,蔡甸区,沌口,商务住宅;产业园区;产业园区,B0FFF3ORB8
114.184367,30.492631,南太子湖创新谷,神龙大道18号,湖北省,武汉市,420114,蔡甸区,沌口,商务住宅;产业园区;产业园区,B0FFILEPPU
114.183897,30.492542,湖北太子湖文化数字创意产业园,武汉经济技术开发区神龙大道18号,湖北省,武汉市,420114,蔡甸区,沌口,商务住宅;产业园区;产业园区,B0FFGWJE8E
114.165457,30.482765,新龙工业园,沌阳大道357号,湖北省,武汉市,420114,蔡甸区,沌口,商务住宅;产业园区;产业园区,B001B0J8JU
114.184522,30.493033,武汉经济开发区艺术创意产业园,科技园东路与科技园二路交叉口北100米,湖北省,武汉市,420114,蔡甸区,沌口,商务住宅;产业园区;产业园区,B0FFGWJ2YM
114.183403,30.496155,红升高科园,沌口街办事处武汉市经济技术开发区车城东路39号,湖北省,武汉市,420114,蔡甸区,沌口,商务住宅;产业园区;产业园区,B001B0JNVQ
114.191962,30.509073,新盛工业园,太子湖北路东50米,湖北省,武汉市,420105,汉阳区,,商务住宅;产业园区;产业园区,B001B0JL7W
114.192047,30.481527,武汉经济开发区(汉南区车辆管理分所),江城大道532号,湖北省,武汉市,420114,蔡甸区,沌口,商务住宅;产业园区;产业园区,B0FFIS5DB3
114.157602,30.478838,海特科技园,珠山湖大道,湖北省,武汉市,420114,蔡甸区,沌口,商务住宅;产业园区;产业园区,B0FFG1RUEX
114.170962,30.472441,武汉经济技术开发区民营科技工业园4区,创业五路与汤湖二路交叉口东50米,湖北省,武汉市,420114,蔡甸区,沌口,商务住宅;产业园区;产业园区,B0FFFOR3GS
114.154419,30.469964,鑫科工业园,沌口街办事处经济技术开发区兴华路58号,湖北省,武汉市,420114,蔡甸区,沌口,商务住宅;产业园区;产业园区,B001B06X5W
114.155477,30.486548,中国武汉腾飞人力资源产业园,东风大道211a座附近,湖北省,武汉市,420114,蔡甸区,沌口,商务住宅;产业园区;产业园区,B0FFIMFPIQ
114.167533,30.505798,武汉经济技术开发区,东风大道88号附近,湖北省,武汉市,420114,蔡甸区,沌口,商务住宅;产业园区;产业园区,B0FFIRWEVS
114.155278,30.473961,武汉出口加工区,创业路东50米,湖北省,武汉市,420114,蔡甸区,沌口,商务住宅;产业园区;产业园区,B0FFG1ROX0
114.171116,30.472988,武汉经济技术开发区民营科技工业园中区,创业五路与汤湖二路交叉口东北100米,湖北省,武汉市,420114,蔡甸区,沌口,商务住宅;产业园区;产业园区,B001B0J8NX
114.202202,30.503402,华中电子商务产业园,经济开发区江城大道与芳草二路交汇处,湖北省,武汉市,420105,汉阳区,,商务住宅;产业园区;产业园区,B0FFFFP5SF
114.185969,30.462395,沌口经济开发区,沌口路附近,湖北省,武汉市,420114,蔡甸区,沌口,商务住宅;产业园区;产业园区,B0FFGZI9G2
114.161792,30.478752,武汉现代制造业创业服务中心(车城大道),沌口街办事处武汉市经济技术开发区人才创新大厦车城大道220号4楼,湖北省,武汉市,420114,蔡甸区,沌口,商务住宅;产业园区;产业园区|生活服务;生活服务场所;生活服务场所,B0FFG8TPF1
114.154627,30.467164,金潮物流园,沌口街办事处兴华路75号,湖北省,武汉市,420114,蔡甸区,沌口,商务住宅;产业园区;产业园区,B0FFHI32PZ
114.2019,30.508001,南太子湖创新谷北区,春晓路西50米,湖北省,武汉市,420105,汉阳区,,商务住宅;产业园区;产业园区,B0FFIMTW94
114.16328,30.507474,武汉开发区人力资源产业园,东风三路21号,湖北省,武汉市,420114,蔡甸区,沌口,商务住宅;产业园区;产业园区,B0FFJ5QNQJ
114.19896,30.509263,华中智谷,芙蓉路,湖北省,武汉市,420105,汉阳区,,商务住宅;产业园区;产业园区,B0FFHO8SLP
114.164544,30.453517,武汉美安物流园,东荆河路175号附近,湖北省,武汉市,420114,蔡甸区,沌口,商务住宅;产业园区;产业园区,B0FFHLZP25
114.153186,30.459455,凯骏时尚科技园,东荆河路58附近,湖北省,武汉市,420114,蔡甸区,沌口,商务住宅;产业园区;产业园区,B0FFJUWCO0
114.15233,30.45925,凯骏工业园,经济开发区莲湖路98号,湖北省,武汉市,420114,蔡甸区,沌口,商务住宅;产业园区;产业园区,B001B16L43
114.186993,30.383508,上海通用汽车产业园,武汉江夏,湖北省,武汉市,420115,江夏区,,商务住宅;产业园区;产业园区,B0FFIKQLX6
114.199392,30.371819,江夏通用汽车产业园,雪佛兰大道金港派出所对面,湖北省,武汉市,420115,江夏区,,商务住宅;产业园区;产业园区,B0FFF66TAF
114.199438,30.371276,金港汽车产业园,,湖北省,武汉市,420115,江夏区,,商务住宅;产业园区;产业园区,B0FFLGWLI8
114.163436,30.362199,武汉金港汽车零部件产业园(外环北路),G4201(武汉绕城高速公路),湖北省,武汉市,420115,江夏区,,商务住宅;产业园区;产业园区,B0FFGILCJG
114.171718,30.338735,菜鸟江夏园区,旭光路与汝南路交叉口北150米,湖北省,武汉市,420115,江夏区,,商务住宅;产业园区;产业园区,B0FFJY4CPE
114.172764,30.338778,菜鸟物流园,菜鸟网络武汉江夏园区B1配套楼南,湖北省,武汉市,420115,江夏区,,商务住宅;产业园区;产业园区,B0FFHGXI97
114.168776,30.339155,菜鸟网络(武汉江夏园区2期),金口街道,湖北省,武汉市,420115,江夏区,,商务住宅;产业园区;产业园区,B0FFHB93BZ
114.1578,30.353611,金江南工业园,101省道纸金路与G4高速金口出口交汇处,湖北省,武汉市,420115,江夏区,,商务住宅;产业园区;产业园区,B0FFH6FQVP
114.234542,30.870561,武汉精华减速机工业园,环祁街203号附近,湖北省,武汉市,420116,黄陂区,,商务住宅;产业园区;产业园区,B0FFKAV3UB
114.246194,30.818261,海航临空产业园,,湖北省,武汉市,420116,黄陂区,,商务住宅;产业园区;产业园区,B0FFGYWSVY
114.229552,30.781658,临空经济开发区,天河国际机场,湖北省,武汉市,420116,黄陂区,,商务住宅;产业园区;产业园区,B0FFFRB7DN
114.234171,30.732975,盘龙城佳海工业园,机场高速附近,湖北省,武汉市,420116,黄陂区,,商务住宅;产业园区;产业园区,B0FFGBAGX4
114.242878,30.720463,盘龙工业园,巨龙大道200号,湖北省,武汉市,420116,黄陂区,,商务住宅;产业园区;产业园区,B001B0JK93
114.236473,30.732225,佳海工业园E区,佳海三巷与佳海路横一巷交叉口东南50米,湖北省,武汉市,420116,黄陂区,,商务住宅;产业园区;产业园区,B0FFGAEKA4
114.242546,30.737201,佳海都市工业园H区,佳海环形路与宋岗路交汇处北150米,湖北省,武汉市,420116,黄陂区,,商务住宅;产业园区;产业园区,B0FFFH0G3F
114.23958,30.734681,佳海工业园L区,盘龙城经济开发区武汉市佳海都市工业园,湖北省,武汉市,420116,黄陂区,,商务住宅;产业园区;产业园区,B0FFGA2KV6
114.237703,30.730133,佳海工业园C区,佳海翼华路3巷,湖北省,武汉市,420116,黄陂区,,商务住宅;产业园区;产业园区,B0FFFOIVEV
114.23784,30.72669,佳海云工坊孵化器,,湖北省,武汉市,420116,黄陂区,,商务住宅;产业园区;产业园区,B0FFLGA1RA
114.239779,30.732649,佳海都市工业城,宋岗路附近,湖北省,武汉市,420116,黄陂区,,商务住宅;产业园区;产业园区,B0FFH3Y1DU
114.240987,30.734464,佳海工业园M区,佳海环形路与宋岗三路交叉口西100米,湖北省,武汉市,420116,黄陂区,,商务住宅;产业园区;产业园区,B0FFH2KAZ1
114.23985,30.728969,佳海工业园D区,盘龙经济开发区港通路东三巷,湖北省,武汉市,420116,黄陂区,,商务住宅;产业园区;产业园区,B0FFG9XAVJ
114.244416,30.738875,艾尔菲洋工业园,,湖北省,武汉市,420116,黄陂区,,商务住宅;产业园区;产业园区,B0FFLGFJTH
114.238602,30.72591,佳海轻纺城,盘龙城经济开发区,湖北省,武汉市,420116,黄陂区,,商务住宅;产业园区;产业园区,B0FFIMS939
114.242342,30.734749,宋岗二路佳海都市工业园,佳海轻纺路与轻纺五巷交叉口南50米,湖北省,武汉市,420116,黄陂区,,商务住宅;产业园区;产业园区,B0FFH19W92
114.243579,30.731767,佳海工业园J区,盘龙城经济开发区,湖北省,武汉市,420116,黄陂区,,商务住宅;产业园区;产业园区,B0FFGAD74J
114.244055,30.729468,俊珲工业城,盘龙城经济开发区,湖北省,武汉市,420116,黄陂区,,商务住宅;产业园区;产业园区,B001B17DWH
114.238932,30.737428,忠珍工业园,佳海工业园H区11号,湖北省,武汉市,420116,黄陂区,,商务住宅;产业园区;产业园区,B001B16WSC
114.245829,30.726946,红松工业园,宋岗一路与宋岗路交叉口西北200米,湖北省,武汉市,420116,黄陂区,,商务住宅;产业园区;产业园区,B0FFGFS7WI
114.246377,30.730484,建工产业城,佳海盘中一路与宋岗二路交叉口东南100米,湖北省,武汉市,420116,黄陂区,,商务住宅;产业园区;产业园区,B0FFH13ZLM
114.248668,30.727453,金世元工业园,,湖北省,武汉市,420116,黄陂区,,商务住宅;产业园区;产业园区,B0FFLFIFYY
114.245775,30.736231,梦卓名工业园,盘龙城经济开发区佳海工业园宋岗三路H116号,湖北省,武汉市,420116,黄陂区,,商务住宅;产业园区;产业园区,B001B17SWJ
114.217765,30.669451,金银湖电子产业园,环湖中路88号,湖北省,武汉市,420112,东西湖区,,商务住宅;产业园区;产业园区,B0FFFFP5KQ
114.221842,30.669381,当代·电子硅谷,环湖一路与环湖中路交叉口西100米,湖北省,武汉市,420112,东西湖区,,商务住宅;产业园区;产业园区,B0FFHCMTFR
114.203085,30.668938,金银湖生态园区,环湖五路与环湖路交叉口东南150米,湖北省,武汉市,420112,东西湖区,,商务住宅;产业园区;产业园区,B0FFFAAEDJ
114.203482,30.670274,武汉国际服务外包企业公园,金银湖生态园环湖路9号,湖北省,武汉市,420112,东西湖区,,商务住宅;产业园区;产业园区,B001B1D7BY
114.23569,30.622103,红T时尚创意街区,江汉经济开发区发展二路2号爱帝集团,湖北省,武汉市,420103,江汉区,常青,商务住宅;产业园区;产业园区,B0FFHCF316
114.236705,30.623157,汉口创业中心(发展一路),江汉经济开发区江旺路8号,湖北省,武汉市,420103,江汉区,常青,商务住宅;产业园区;产业园区,B001B16WKQ
114.228146,30.622677,新金科技企业孵化园,发展四路1号,湖北省,武汉市,420103,江汉区,常青,商务住宅;产业园区;产业园区,B001B0K6R1
114.228933,30.622982,新世界珠宝首饰工业园,发展四路1号,湖北省,武汉市,420103,江汉区,常青,商务住宅;产业园区;产业园区|公司企业;公司;公司,B0FFI7ACVL
114.228173,30.622772,新金科技园,发展四路1号,湖北省,武汉市,420103,江汉区,常青,商务住宅;产业园区;产业园区,B0FFHPZVA2
114.227884,30.620426,京山轻机工业园,江汉经济开发区江兴路22号,湖北省,武汉市,420103,江汉区,常青,商务住宅;产业园区;产业园区,B001B1DGB4
114.232249,30.618861,汉兴都市工业园,江达路特8号,湖北省,武汉市,420103,江汉区,常青,商务住宅;产业园区;产业园区,B001B0JMIL
114.236886,30.623028,火凤凰云基地,江汉经济开发区江旺路6号,湖北省,武汉市,420103,江汉区,常青,商务住宅;产业园区;产业园区,B0FFIL5RXK
114.23355,30.623995,国家级欣欣中信科技孵化器,,湖北省,武汉市,420103,江汉区,常青,商务住宅;产业园区;产业园区,B0FFLEZUPF
114.236057,30.621181,俊源美佳创业园,江汉经济开发区常青路江汉经济开发区发展二路4号,湖北省,武汉市,420103,江汉区,常青,商务住宅;产业园区;产业园区,B0FFGKWQ9O
114.235332,30.622687,爱帝产业园,江汉经济开发区江旺路8号爱帝产业园,湖北省,武汉市,420103,江汉区,常青,商务住宅;产业园区;产业园区,B0FFKZL7MM
114.22729,30.617975,佐尔美工业园,江汉经济开发区江发路38号,湖北省,武汉市,420103,江汉区,常青,商务住宅;产业园区;产业园区,B001B1H3CH
114.238605,30.625062,江汉经济开发区全民创业基地,,湖北省,武汉市,420103,江汉区,常青,商务住宅;产业园区;产业园区,B0FFLFFH9A
114.232854,30.621659,国家重大科技成果转化项目产业基地,发展三路与江旺路交叉口东南50米,湖北省,武汉市,420103,江汉区,常青,商务住宅;产业园区;产业园区,B0FFJ4FX9P
114.203606,30.637986,华生制冷工业园,金银湖南一街与金银湖西一路交叉口西50米,湖北省,武汉市,420112,东西湖区,,商务住宅;产业园区;产业园区,B0FFHD2AMI
114.235595,30.620787,俊隆科技园,江汉经济开发区发展二路,湖北省,武汉市,420103,江汉区,常青,商务住宅;产业园区;产业园区,B001B1DCXW
114.237024,30.623015,汉口高新技术创业服务中心大学生创业基地,江兴路6号,湖北省,武汉市,420103,江汉区,常青,商务住宅;产业园区;产业园区,B0FFHLXNVS
114.251656,30.624225,汉兴创业中心,红旗渠路18号25B1-3附近,湖北省,武汉市,420103,江汉区,常青,商务住宅;产业园区;产业园区,B0FFHSJFBU
114.233543,30.612087,安里新村服装工业园,柏润路144西南方向16米,湖北省,武汉市,420103,江汉区,常青,商务住宅;产业园区;产业园区,B0FFHLPNK8
114.244211,30.655357,明伟宏产业园,姑李路43号,湖北省,武汉市,420112,东西湖区,,商务住宅;产业园区;产业园区,B0FFI1S6SN
114.202776,30.636848,武汉航空港互联网+金融产业园,金银湖南一路以南金银湖西路以西,湖北省,武汉市,420112,东西湖区,,商务住宅;产业园区;产业园区,B0FFLEDOT6
114.249804,30.654444,金银潭经济发展区,将军一路与金银潭大道交叉口西150米,湖北省,武汉市,420112,东西湖区,,商务住宅;产业园区;产业园区,B0FFG2E6KM
114.249535,30.65281,江城明珠驾校金银潭基地,将军二路与金银潭大道交叉口西北200米,湖北省,武汉市,420112,东西湖区,,商务住宅;产业园区;产业园区,B0FFH43Q59
114.240442,30.612354,雄翔工业园,江汉经济开发区常飞街常发里102号,湖北省,武汉市,420103,江汉区,常青,商务住宅;产业园区;产业园区,B001B16GMO
114.250303,30.612016,国家技术转移,发展大道164号武汉科技大厦14层,湖北省,武汉市,420103,江汉区,常青,商务住宅;产业园区;产业园区,B0FFG20JEM
114.250303,30.612016,农业科技成果推广部,发展大道164号武汉科技大厦14层,湖北省,武汉市,420103,江汉区,常青,商务住宅;产业园区;产业园区,B0FFG1NTHN
114.211618,30.597368,江城壹号,古田四路47号,湖北省,武汉市,420104,硚口区,古田,商务住宅;产业园区;产业园区,B001B16YF7
114.219098,30.591165,国家级武汉新材料科技企业孵化器,古田街道古田五路17号,湖北省,武汉市,420104,硚口区,古田,商务住宅;产业园区;产业园区,B001B15ZXS
114.21968,30.59032,国家火炬特色产业基地,古田五路17-3号楼附近,湖北省,武汉市,420104,硚口区,古田,商务住宅;产业园区;产业园区,B001B1C1NE
114.219649,30.592101,新材料孵化器行政服务中心,古田五路,湖北省,武汉市,420104,硚口区,古田,商务住宅;产业园区;产业园区,B0FFGCDQT3
114.220215,30.590471,武汉三新材料科技企业孵化器大学生创业特区,古田五路17号,湖北省,武汉市,420104,硚口区,古田,商务住宅;产业园区;产业园区,B0FFH1YN0V
114.227125,30.565326,泰鑫工业园,高庙1号,湖北省,武汉市,420105,汉阳区,琴断口,商务住宅;产业园区;产业园区,B001B0IN12
114.220007,30.590344,国家级科技企业孵化器,古田街道古田五路17号,湖北省,武汉市,420104,硚口区,古田,商务住宅;产业园区;产业园区,B0FFGXVOZ8
114.22021,30.590469,武汉市知识产权托管园区(古田五路),古田五路17号,湖北省,武汉市,420104,硚口区,古田,商务住宅;产业园区;产业园区,B0FFGA0ZP2
114.211731,30.594749,章文工业园,长嘉路9号,湖北省,武汉市,420104,硚口区,古田,商务住宅;产业园区;产业园区,B0FFFF98BC
114.205827,30.608106,汉正街都市工业区长丰科技产业园,丰美路与长丰大道高架交叉口西南150米,湖北省,武汉市,420104,硚口区,古田,商务住宅;产业园区;产业园区,B001B0I095
114.207098,30.604016,长丰(二期)永利工业园,古田四路长安路5号,湖北省,武汉市,420104,硚口区,古田,商务住宅;产业园区;产业园区,B001B1C13X
114.211845,30.596505,文化创意产业园区,古田四路47号江城壹号文化创意产业园区,湖北省,武汉市,420104,硚口区,古田,商务住宅;产业园区;产业园区,B0FFL6YGIG
114.211356,30.596586,微果青年创业孵化中心,南泥湾大道江城一号25A,湖北省,武汉市,420104,硚口区,古田,商务住宅;产业园区;产业园区,B0FFFE33SC
114.214646,30.600129,龙狮工业园2,古田四路185号附近,湖北省,武汉市,420104,硚口区,古田,商务住宅;产业园区;产业园区,B0FFH5KWDO
114.214345,30.594594,武汉市硚口区都市型工业经济园区,古田四路36号,湖北省,武汉市,420104,硚口区,古田,商务住宅;产业园区;产业园区,B001B1CCDQ
114.207542,30.592177,湖北省新华印刷产业园,解放大道149号,湖北省,武汉市,420104,硚口区,古田,商务住宅;产业园区;产业园区,B001B08WH4
114.214478,30.599651,玉峰工业园,古田四路与长安路交叉口西南150米,湖北省,武汉市,420104,硚口区,古田,商务住宅;产业园区;产业园区,B001B16YX4
114.246953,30.599796,华中互联网金融产业基地,淮海路,湖北省,武汉市,420103,江汉区,,商务住宅;产业园区;产业园区,B0FFGCDQ5L
114.212813,30.596694,同心健康服务·产业园,古田4路49号,湖北省,武汉市,420104,硚口区,古田,商务住宅;产业园区;产业园区,B0FFFA1OEX
114.225489,30.607104,爱之家汽车生态园,长丰大道与长丰大道高架交叉口东北150米,湖北省,武汉市,420104,硚口区,,商务住宅;产业园区;产业园区,B0FFG8VW6E
114.209573,30.603818,亚诺工业园7,长安路7号,湖北省,武汉市,420104,硚口区,古田,商务住宅;产业园区;产业园区,B0FFGQ4E94
114.210235,30.602611,亚诺工业园10,长安路9号附近,湖北省,武汉市,420104,硚口区,古田,商务住宅;产业园区;产业园区,B0FFGQ4IFA
114.249178,30.599345,中国武汉人力资源服务产业园,商务区SOHO城4栋,湖北省,武汉市,420103,江汉区,,商务住宅;产业园区;产业园区,B0FFHP1WJP
114.210092,30.60248,吉田工业园16,长安路7附11号附近,湖北省,武汉市,420104,硚口区,古田,商务住宅;产业园区;产业园区,B0FFH5KWCG
114.210445,30.603066,亚诺工业园12,长安路长安路7号12栋附近,湖北省,武汉市,420104,硚口区,古田,商务住宅;产业园区;产业园区,B0FFGQ4BWS
114.210561,30.602938,亚诺工业园18,长安路9号附近,湖北省,武汉市,420104,硚口区,古田,商务住宅;产业园区;产业园区,B0FFH5KWMC
114.210483,30.603282,亚诺工业园13,长安路长安路7号12栋附近,湖北省,武汉市,420104,硚口区,古田,商务住宅;产业园区;产业园区,B0FFGQ4B56
114.238014,30.605107,武汉小微(科技)企业创业园,发展大道36-1号,湖北省,武汉市,420104,硚口区,常青,商务住宅;产业园区;产业园区,B0FFGCDQCZ
114.209297,30.602657,亚诺工业园9(长安路),长安路7-附3附近,湖北省,武汉市,420104,硚口区,古田,商务住宅;产业园区;产业园区,B0FFH8U4DC
114.220056,30.60833,常码工业园,常码头附439号,湖北省,武汉市,420104,硚口区,古田,商务住宅;产业园区;产业园区,B001B0IH42
114.209432,30.603389,亚诺工业园5,古乐路特8号,湖北省,武汉市,420104,硚口区,古田,商务住宅;产业园区;产业园区,B0FFGQ4EIY
114.209241,30.602902,亚诺工业园3栋,长安路7-附3附近,湖北省,武汉市,420104,硚口区,古田,商务住宅;产业园区;产业园区,B0FFGQ4CPM
114.21034,30.60286,亚诺工业园11(丰华园南),长安路9号附近,湖北省,武汉市,420104,硚口区,古田,商务住宅;产业园区;产业园区,B0FFGQ4GDY
114.20971,30.603761,亚诺工业园14,古乐路特8号附近,湖北省,武汉市,420104,硚口区,古田,商务住宅;产业园区;产业园区,B0FFGQ49FW
114.209321,30.603161,亚诺工业园4栋,长安路7号亚诺工业园附近,湖北省,武汉市,420104,硚口区,古田,商务住宅;产业园区;产业园区,B0FFGQ4B50
114.209722,30.604035,亚诺工业园8,长安路8号附近,湖北省,武汉市,420104,硚口区,古田,商务住宅;产业园区;产业园区,B0FFGQ4EAW
114.209521,30.603605,亚诺工业园6栋,古乐路特8号附近,湖北省,武汉市,420104,硚口区,古田,商务住宅;产业园区;产业园区,B0FFGQ4BTB
114.208795,30.59174,楚天智汇创业孵化生态基地,解放大道213号,湖北省,武汉市,420104,硚口区,古田,商务住宅;产业园区;产业园区,B0FFKMJ58D
114.204234,30.604182,武汉市残疾人科技园,古田三路附1号,湖北省,武汉市,420104,硚口区,古田,商务住宅;产业园区;产业园区,B0FFFE4JUB
114.217783,30.607382,汉西优诚,长丰大道3号东90米,湖北省,武汉市,420104,硚口区,古田,商务住宅;产业园区;产业园区,B0FFL6YVB1
114.204352,30.604503,武汉福泽科技园,长安路,湖北省,武汉市,420104,硚口区,古田,商务住宅;产业园区;产业园区,B001B15S4J
114.248436,30.571476,D+M工业设计小镇,京汉大道特1号,湖北省,武汉市,420104,硚口区,宝丰,商务住宅;产业园区;产业园区,B0FFIMQBS9
114.204217,30.604188,硚口区福泽健康产业科技园,长安路北50米,湖北省,武汉市,420104,硚口区,古田,商务住宅;产业园区;产业园区,B0FFK7RCYB
114.204206,30.607676,丰科技园,长丰大道138号,湖北省,武汉市,420104,硚口区,古田,商务住宅;产业园区;产业园区,B0FFIJTX6C
114.209176,30.602728,亚诺工业园2栋,长安路7号附近,湖北省,武汉市,420104,硚口区,古田,商务住宅;产业园区;产业园区,B0FFH1NX3Y
114.237156,30.56397,汉阳造广告产业园,华园侧路与琴台大道交叉口南50米,湖北省,武汉市,420105,汉阳区,,商务住宅;产业园区;产业园区,B0FFG2BHVW
114.251292,30.549313,汉阳机电创业园,汉阳大道365号,湖北省,武汉市,420105,汉阳区,五里墩,商务住宅;产业园区;产业园区,B0FFG2AA2V
114.24369,30.512795,华中会展产业园,四新北路西50米,湖北省,武汉市,420105,汉阳区,,商务住宅;产业园区;产业园区,B0FFGWJGIO
114.249975,30.523089,富丽华三面翻广告生产基地,洲头街办事处倒口西村366号,湖北省,武汉市,420105,汉阳区,洲头,商务住宅;产业园区;产业园区,B0FFGXWMQK
114.220428,30.484982,江圩工业园,长江路特6号,湖北省,武汉市,420105,汉阳区,,商务住宅;产业园区;产业园区,B0FFGCBCMX
114.222495,30.481498,汉阳区丹亭工业园,沌口路附近,湖北省,武汉市,420114,蔡甸区,,商务住宅;产业园区;产业园区,B0FFH85IGV
114.219879,30.48389,老关村工业园区,南太子湖沌口路,湖北省,武汉市,420114,蔡甸区,,商务住宅;产业园区;产业园区,B0FFFOWK04
114.218841,30.485586,武汉安能物流园,江堤街办事处沌口长江路特一号,湖北省,武汉市,420105,汉阳区,,商务住宅;产业园区;产业园区,B0FFGA5Q4V
114.219369,30.484941,武汉市中南创业就业文化科技园,长江路特1号中南工业园(新国博景观酒店),湖北省,武汉市,420114,蔡甸区,,商务住宅;产业园区;产业园区,B0FFJDKRII
114.221098,30.474997,河南省长垣县起重机械工业园区,,湖北省,武汉市,420114,蔡甸区,,商务住宅;产业园区;产业园区,B0FFLGKJ0Y
114.247578,30.468822,武汉建和工业园,武金堤路东150米,湖北省,武汉市,420111,洪山区,,商务住宅;产业园区;产业园区,B0FFIN2ZCH
114.202847,30.502789,华中电子商务产业园C1,太子湖北路与蔷薇路交叉口北100米,湖北省,武汉市,420105,汉阳区,,商务住宅;产业园区;产业园区,B0FFGWJ7XQ
114.2029,30.502869,华中电子商务产业园C2,太子湖北路与蔷薇路交叉口北100米,湖北省,武汉市,420105,汉阳区,,商务住宅;产业园区;产业园区,B0FFGWJ4P2
114.202333,30.502775,华中电子商务产业园A1,太子湖北路与蔷薇路交叉口西北100米,湖北省,武汉市,420105,汉阳区,,商务住宅;产业园区;产业园区,B0FFGWMO34
114.203164,30.510846,国家数字出版基地,江堤街办事处蔷薇路华中智谷东450米,湖北省,武汉市,420105,汉阳区,,商务住宅;产业园区;产业园区,B0FFHMGZYO
114.239306,30.449061,中秀文化产业园,南郊路36号,湖北省,武汉市,420111,洪山区,,商务住宅;产业园区;产业园区,B0FFI97840
114.241422,30.4507,德成国际文化创意软件园,南郊路东200米,湖北省,武汉市,420111,洪山区,,商务住宅;产业园区;产业园区,B0FFGWI2KY
114.241736,30.447001,慧力科技园,青菱河路东50米,湖北省,武汉市,420111,洪山区,,商务住宅;产业园区;产业园区,B001B17DV0
114.243217,30.453517,德成5.5独角兽小镇,青菱街道南郊路8号,湖北省,武汉市,420111,洪山区,,商务住宅;产业园区;产业园区,B0FFJ62LJA
114.237934,30.44829,华中(刺绣)科技文化产业集群基地,南郊路东50米,湖北省,武汉市,420111,洪山区,,商务住宅;产业园区;产业园区,B0FFHLW1NM
114.246572,30.456083,武汉市亚中青菱工业园,青菱河路18号附近,湖北省,武汉市,420111,洪山区,,商务住宅;产业园区;产业园区,B0FFGK198B
114.248053,30.457839,白沙洲中小企业城,青菱湖北路,湖北省,武汉市,420111,洪山区,,商务住宅;产业园区;产业园区,B0FFF0DUJO
114.245333,30.450089,武汉强力产业园,青菱河1号人行桥附近,湖北省,武汉市,420111,洪山区,,商务住宅;产业园区;产业园区,B001B17DZV
114.252197,30.459833,武汉银湖中小企业城,青菱河路,湖北省,武汉市,420111,洪山区,,商务住宅;产业园区;产业园区,B0FFG23JJ7
114.205938,30.386958,金港新区,武深高速西150米,湖北省,武汉市,420115,江夏区,,商务住宅;产业园区;产业园区,B0FFGACDOW
114.247198,30.363251,咸昌农贸产业园,金竹路,湖北省,武汉市,420115,江夏区,,商务住宅;产业园区;产业园区,B0FFG9VWTS
114.242659,30.349167,旺辉产业园,东风村东风路,湖北省,武汉市,420115,江夏区,,商务住宅;产业园区;产业园区,B0FFH5ZXT2
114.244081,30.349818,湖北友顺门窗产业园,东风路,湖北省,武汉市,420115,江夏区,,商务住宅;产业园区;产业园区,B0FFGJPSLJ
114.250202,30.298676,武汉农业集团丛霖现代都市农业园示范基地,郑店街劳四村,湖北省,武汉市,420115,江夏区,,商务住宅;产业园区;产业园区,B0FFH19SUT
114.27988,30.961301,北丰科技园,北丰科技园武汉兆丰农科院,湖北省,武汉市,420116,黄陂区,,商务住宅;产业园区;产业园区,B001B1BNR5
114.279888,30.961324,武汉市兆丰农业高科技园,兆丰农业高科技园,湖北省,武汉市,420116,黄陂区,,商务住宅;产业园区;产业园区,B001B0K6CJ
114.277706,30.782165,华一兄弟服饰创意园,川龙大道东50米,湖北省,武汉市,420116,黄陂区,,商务住宅;产业园区;产业园区,B0FFJY4DSO
114.277709,30.781809,顺昌科技产业园,川龙大道东50米,湖北省,武汉市,420116,黄陂区,,商务住宅;产业园区;产业园区,B0FFGJUS8R
114.277077,30.782975,周大福珠宝文化产业园·武汉,川龙大道8号,湖北省,武汉市,420116,黄陂区,,商务住宅;产业园区;产业园区,B0FFG7928B
114.274079,30.783162,周大福珠宝产业园,川龙大道8号,湖北省,武汉市,420116,黄陂区,,商务住宅;产业园区;产业园区,B0FFFFYI2P
114.277447,30.780848,华力工业园,临空中路与川龙大道交叉口北150米,湖北省,武汉市,420116,黄陂区,,商务住宅;产业园区;产业园区,B0FFGJUSA4
114.280231,30.782519,鸿鹄工业园,临空北路鸿鹄工业园,湖北省,武汉市,420116,黄陂区,,商务住宅;产业园区;产业园区,B0FFH431DC
114.282092,30.780368,通汇时尚产业园(政工路),川龙大道东100米,湖北省,武汉市,420116,黄陂区,,商务住宅;产业园区;产业园区,B0FFGH5MOE
114.275975,30.779812,武汉兴业明珠科技产业园,川龙大道与临空中路交叉口,湖北省,武汉市,420116,黄陂区,,商务住宅;产业园区;产业园区,B0FFI2IP8G
114.267502,30.78739,江恒科技园,临空北路卓尔集团对面,湖北省,武汉市,420116,黄陂区,,商务住宅;产业园区;产业园区,B0FFL9AMFX
114.283058,30.780496,通汇服装产业园,临空北路与政工路交叉口东南100米,湖北省,武汉市,420116,黄陂区,,商务住宅;产业园区;产业园区,B0FFH1KCCC
114.272035,30.779655,奥联科技产业园,临空中路与物工路交叉口西南200米,湖北省,武汉市,420116,黄陂区,,商务住宅;产业园区;产业园区,B0FFILBD3A
114.282799,30.778459,通汇夫子产业园,临空中路与政工路交叉口东150米,湖北省,武汉市,420116,黄陂区,,商务住宅;产业园区;产业园区,B0FFILBE8A
114.277922,30.782792,华威产业园,临空北路与川龙大道交叉口南200米,湖北省,武汉市,420116,黄陂区,,商务住宅;产业园区;产业园区,B001B15Z59
114.27524,30.775062,华融-芯空港,,湖北省,武汉市,420116,黄陂区,,商务住宅;产业园区;产业园区,B0FFLGDVX7
114.276341,30.774788,中航森瑞园区,,湖北省,武汉市,420116,黄陂区,,商务住宅;产业园区;产业园区,B0FFLG9YLU
114.291063,30.790371,华康工业园,横店街红旗路1号华康工业园,湖北省,武汉市,420116,黄陂区,,商务住宅;产业园区;产业园区,B0FFL8FLYZ
114.269768,30.777276,格天光电科技产业园,横店临空南路(川龙大道旁300米),湖北省,武汉市,420116,黄陂区,,商务住宅;产业园区;产业园区,B0FFI32MLW
114.270178,30.778262,武汉临空·格天科技产业园,临空南路北50米,湖北省,武汉市,420116,黄陂区,,商务住宅;产业园区;产业园区,B0FFILBRIX
114.269718,30.777142,格天光电·临空天成电子工业园,横店临空南路(川龙大道旁300米),湖北省,武汉市,420116,黄陂区,,商务住宅;产业园区;产业园区,B0FFJPSJ0D
114.273791,30.773492,新华光硅晶显示科技工业园,盘龙大道西50米,湖北省,武汉市,420116,黄陂区,,商务住宅;产业园区;产业园区,B0FFFFYI2V
114.272533,30.768749,爱帝时尚产业园(政工路),,湖北省,武汉市,420116,黄陂区,,商务住宅;产业园区;产业园区,B0FFLGAC4H
114.26321,30.798186,普洛斯,横店街横天公路,湖北省,武汉市,420116,黄陂区,,商务住宅;产业园区;产业园区,B0FFGCEXJI
114.297809,30.79147,幸福里工业园,横店街道安居巷横店工业园西500米,湖北省,武汉市,420116,黄陂区,,商务住宅;产业园区;产业园区,B0FFGFRXIE
114.269875,30.803672,菜鸟网络武汉黄陂1期园区,腾飞东路,湖北省,武汉市,420116,黄陂区,,商务住宅;产业园区;产业园区,B0FFJP98GH
114.269728,30.768583,惠强科技园,天阳路与盘龙大道交叉口西北150米,湖北省,武汉市,420116,黄陂区,,商务住宅;产业园区;产业园区,B0FFGA9ETD
114.274786,30.768168,爱帝时尚创意产业园(政工路),盘龙大道东150米,湖北省,武汉市,420116,黄陂区,,商务住宅;产业园区;产业园区,B0FFFFYHW9
114.281233,30.767666,康顺产业园,临空东街西50米,湖北省,武汉市,420116,黄陂区,,商务住宅;产业园区;产业园区,B0FFIL9OU3
114.271529,30.768113,武汉惠强锂电隔膜产业园,天阳路与盘龙大道交叉口东北150米,湖北省,武汉市,420116,黄陂区,,商务住宅;产业园区;产业园区,B0FFF3OR7C
114.267544,30.768364,临空产业园,天阳路北50米,湖北省,武汉市,420116,黄陂区,,商务住宅;产业园区;产业园区,B0FFILBGZR
114.300203,30.792316,电子照明设备产业园,创业路与052县道交叉口西北50米,湖北省,武汉市,420116,黄陂区,横店,商务住宅;产业园区;产业园区,B0FFIMLBYP
114.275184,30.766108,标致缇诗服饰创意园,天阳路与政工路交叉口西北150米,湖北省,武汉市,420116,黄陂区,,商务住宅;产业园区;产业园区,B0FFIL9MR8
114.267133,30.806527,菜鸟网络武汉黄陂园区2期,腾飞东路,湖北省,武汉市,420116,黄陂区,,商务住宅;产业园区;产业园区,B0FFHB82Y1
114.290374,30.805232,武汉市艺科达临空产业园,川龙大道西150米,湖北省,武汉市,420116,黄陂区,,商务住宅;产业园区;产业园区,B001B16T4F
114.30146,30.79097,威朗产业园,创业路与052县道交叉口东150米,湖北省,武汉市,420116,黄陂区,,商务住宅;产业园区;产业园区,B001B15QYR
114.256456,30.711925,武汉盘龙城经济开发区,巨龙大道188号,湖北省,武汉市,420116,黄陂区,,商务住宅;产业园区;产业园区,B001B0IEJI
114.27367,30.674167,金银潭现代企业城,宏图路,湖北省,武汉市,420112,东西湖区,,商务住宅;产业园区;产业园区,B001B15T2O
114.268028,30.676989,锦宏工业园,锦宏工业园(盘龙大道西440米),湖北省,武汉市,420112,东西湖区,,商务住宅;产业园区;产业园区,B0FFI6OKJZ
114.267297,30.676162,中环工业园,金谭路扬子江客车附近,湖北省,武汉市,420112,东西湖区,,商务住宅;产业园区;产业园区,B0FFGAAL05
114.270052,30.674321,祁氏工业园,将军街金潭路22号,湖北省,武汉市,420112,东西湖区,,商务住宅;产业园区;产业园区,B0FFFF7JJ3
114.267047,30.674835,飘轩工业园,飘轩(金潭路北),湖北省,武汉市,420112,东西湖区,,商务住宅;产业园区;产业园区,B0FFG6B5YM
114.286284,30.672605,国君青松工业园,银潭路附近,湖北省,武汉市,420112,东西湖区,,商务住宅;产业园区;产业园区,B0FFG8F3B1
114.290359,30.673344,汉钢科技产业园,金潭路2号,湖北省,武汉市,420112,东西湖区,,商务住宅;产业园区;产业园区,B0FFG30K1C
114.268082,30.672349,武汉汉宏科技园,金潭路28号团结激光工业园1栋,湖北省,武汉市,420112,东西湖区,,商务住宅;产业园区;产业园区,B0FFFFKBNX
114.287093,30.673183,正兴工业园,金潭路西200米,湖北省,武汉市,420112,东西湖区,,商务住宅;产业园区;产业园区,B0FFI6KS5R
114.278491,30.675544,武汉冰山工业园,金银潭经济发银潭路16号,湖北省,武汉市,420112,东西湖区,,商务住宅;产业园区;产业园区,B001B0JLGZ
114.286658,30.67097,金银潭通信产业基地,金银潭大道与银潭路交叉口东北200米,湖北省,武汉市,420112,东西湖区,,商务住宅;产业园区;产业园区,B0FFFFP5LU
114.27228,30.67126,天龙钢构工业园,银潭路22号附近,湖北省,武汉市,420112,东西湖区,,商务住宅;产业园区;产业园区,B001B1DCL9
114.289295,30.671118,后振兴工业园,金银潭大道135号,湖北省,武汉市,420112,东西湖区,,商务住宅;产业园区;产业园区,B0FFGAFB4E
114.295262,30.668473,金潭村服装生产加工园,后湖街办事处三金潭,湖北省,武汉市,420102,江岸区,,商务住宅;产业园区;产业园区|公司企业;公司;公司,B0FFF2M7KR
114.269741,30.671367,团结激光工业园,金潭路28号附近,湖北省,武汉市,420112,东西湖区,,商务住宅;产业园区;产业园区,B0FFGA2HR9
114.29796,30.698146,盘龙经济开发区,卓尔大厦盘龙经济开发区,湖北省,武汉市,420116,黄陂区,,商务住宅;产业园区;产业园区,B0FFLH1TH3
114.297626,30.698023,1+8创业城,盘龙城经济开发区巨龙大道卓尔创业中心,湖北省,武汉市,420116,黄陂区,,商务住宅;产业园区;产业园区,B001B0JLIB
114.297986,30.698618,No.1企业社区B6,巨龙大道北100米,湖北省,武汉市,420116,黄陂区,,商务住宅;产业园区;产业园区,B0FFH3M4H9
114.298043,30.69869,No.1企业社区A6,巨龙大道北150米,湖北省,武汉市,420116,黄陂区,,商务住宅;产业园区;产业园区,B0FFH3MDEH
114.298814,30.698326,No.1企业社区2,巨龙大道北100米,湖北省,武汉市,420116,黄陂区,,商务住宅;产业园区;产业园区,B0FFH1I5PO
114.297723,30.69938,No.1企业社区B17,巨龙大道东200米,湖北省,武汉市,420116,黄陂区,,商务住宅;产业园区;产业园区,B0FFH3M4JM
114.298246,30.698844,No.1企业社区5,巨龙大道特1号附近,湖北省,武汉市,420116,黄陂区,,商务住宅;产业园区;产业园区,B0FFH3M8B2
114.297897,30.699273,No.1企业社区A18,巨龙大道北200米,湖北省,武汉市,420116,黄陂区,,商务住宅;产业园区;产业园区,B0FFH3M5FF
114.299373,30.697988,No.1企业社区33,巨龙大道北100米,湖北省,武汉市,420116,黄陂区,,商务住宅;产业园区;产业园区,B0FFH1HE7X
114.297991,30.69922,No.1企业社区B18,巨龙大道北200米,湖北省,武汉市,420116,黄陂区,,商务住宅;产业园区;产业园区,B0FFH3M5GG
114.297716,30.699797,No.1企业社区B16,巨龙大道东200米,湖北省,武汉市,420116,黄陂区,,商务住宅;产业园区;产业园区,B0FFH3M5FD
114.298348,30.699126,No.1企业社区19,巨龙大道特1号附近,湖北省,武汉市,420116,黄陂区,,商务住宅;产业园区;产业园区,B0FFH3M7Z6
114.298829,30.698601,No.1企业社区3,巨龙大道北150米,湖北省,武汉市,420116,黄陂区,,商务住宅;产业园区;产业园区,B0FFH25O0C
114.299047,30.698316,No.1企业社区7,巨龙大道北150米,湖北省,武汉市,420116,黄陂区,,商务住宅;产业园区;产业园区,B0FFH2133B
114.297787,30.69991,No.1企业社区A16,宏图路a15栋附近,湖北省,武汉市,420116,黄陂区,,商务住宅;产业园区;产业园区,B0FFH3MD8V
114.298832,30.698885,No.1企业社区4,巨龙大道特1号附近,湖北省,武汉市,420116,黄陂区,,商务住宅;产业园区;产业园区,B0FFH25NHU
114.299057,30.69871,No.1企业社区35,巨龙大道北150米,湖北省,武汉市,420116,黄陂区,,商务住宅;产业园区;产业园区,B0FFH213OS
114.297833,30.699145,No.1企业社区A8(宏图路),巨龙大道北150米,湖北省,武汉市,420116,黄陂区,,商务住宅;产业园区;产业园区,B0FFH1HM7F
114.297956,30.700119,No.1企业社区A15,宏图路a15栋附近,湖北省,武汉市,420116,黄陂区,,商务住宅;产业园区;产业园区,B0FFH3M5LA
114.298854,30.699769,No.1企业社区12,巨龙大道北200米(No.1企业社区旁)捷瑞大厦附近,湖北省,武汉市,420116,黄陂区,,商务住宅;产业园区;产业园区,B0FFH1HE6X
114.297038,30.701235,No.1企业社区63,巨龙大道08号附近,湖北省,武汉市,420116,黄陂区,,商务住宅;产业园区;产业园区,B0FFH3MD9N
114.297212,30.701146,No.1企业社区59,巨龙大道08号附近,湖北省,武汉市,420116,黄陂区,,商务住宅;产业园区;产业园区,B0FFH3MD9E
114.298845,30.699446,No.1企业社区11,巨龙大道北200米(No.1企业社区旁)捷瑞大厦附近,湖北省,武汉市,420116,黄陂区,,商务住宅;产业园区;产业园区,B0FFH25NZ1
114.297099,30.701418,No.1企业社区65,宏图路附近,湖北省,武汉市,420116,黄陂区,,商务住宅;产业园区;产业园区,B0FFH3M4SJ
114.297681,30.699392,盘龙科技孵化器创业中心,巨龙大道东200米,湖北省,武汉市,420116,黄陂区,,商务住宅;产业园区;产业园区,B0FFH3M71R
114.298234,30.700374,No.1企业社区B14,宏图路a15栋附近,湖北省,武汉市,420116,黄陂区,,商务住宅;产业园区;产业园区,B0FFH3M5F4
114.297996,30.700691,No.1企业社区B57,巨龙大道08经典附近,湖北省,武汉市,420116,黄陂区,,商务住宅;产业园区;产业园区,B0FFH3MDVA
114.298346,30.700327,No.1企业社区A14,宏图路a15栋附近,湖北省,武汉市,420116,黄陂区,,商务住宅;产业园区;产业园区,B0FFH3MD7Q
114.297604,30.699444,No.1企业社区A17(宏图路),巨龙大道特1号附近,湖北省,武汉市,420116,黄陂区,,商务住宅;产业园区;产业园区,B0FFH1I45V
114.297701,30.698174,No.1企业社区E1(巨龙大道),巨龙大道22附近,湖北省,武汉市,420116,黄陂区,,商务住宅;产业园区;产业园区,B0FFH25YW5
114.299475,30.699052,No.1企业社区47,巨龙大道北200米,湖北省,武汉市,420116,黄陂区,,商务住宅;产业园区;产业园区,B0FFH21SHV
114.298284,30.700472,No.1企业社区A24,宏图路附近,湖北省,武汉市,420116,黄陂区,,商务住宅;产业园区;产业园区,B0FFH3MDEA
114.298413,30.700415,No.1企业社区B24,宏图路附近,湖北省,武汉市,420116,黄陂区,,商务住宅;产业园区;产业园区,B0FFH3MDCS
114.298641,30.700165,No.1企业社区13,宏图路附近,湖北省,武汉市,420116,黄陂区,,商务住宅;产业园区;产业园区,B0FFH3M5FB
114.29916,30.699577,No.1企业社区48,巨龙大道北200米(No.1企业社区旁)捷瑞大厦附近,湖北省,武汉市,420116,黄陂区,,商务住宅;产业园区;产业园区,B0FFH21SOA
114.299741,30.698892,No.1企业社区36A,巨龙大道北200米,湖北省,武汉市,420116,黄陂区,,商务住宅;产业园区;产业园区,B0FFH212RN
114.295517,30.703652,No.1企业社区J10,,湖北省,武汉市,420116,黄陂区,,商务住宅;产业园区;产业园区,B0FFH1H91M
114.297296,30.701664,No.1企业社区B66,宏图路附近,湖北省,武汉市,420116,黄陂区,,商务住宅;产业园区;产业园区,B0FFH3M7YX
114.299833,30.698895,No.1企业社区36,巨龙大道北200米,湖北省,武汉市,420116,黄陂区,,商务住宅;产业园区;产业园区,B0FFH21PA4
114.297467,30.701614,No.1企业社区B60,宏图路附近,湖北省,武汉市,420116,黄陂区,,商务住宅;产业园区;产业园区,B0FFH3M4K0
114.297338,30.701748,No.1企业社区A66,宏图路附近,湖北省,武汉市,420116,黄陂区,,商务住宅;产业园区;产业园区,B0FFH3MDFM
114.295933,30.703477,No.1企业社区J9,,湖北省,武汉市,420116,黄陂区,,商务住宅;产业园区;产业园区,B0FFH1HKE4
114.298846,30.700229,No.1企业社区20,宏图路附近,湖北省,武汉市,420116,黄陂区,,商务住宅;产业园区;产业园区,B0FFH3MDEX
114.297521,30.701686,No.1企业社区A60,宏图路附近,湖北省,武汉市,420116,黄陂区,,商务住宅;产业园区;产业园区,B0FFH3M4JX
114.300299,30.698489,No.1企业社区38,巨龙大道北200米,湖北省,武汉市,420116,黄陂区,,商务住宅;产业园区;产业园区,B0FFH21S7S
114.296809,30.703111,No.1企业社区J7,,湖北省,武汉市,420116,黄陂区,,商务住宅;产业园区;产业园区,B0FFH1HM2K
114.298287,30.701242,No.1企业社区A69,宏图路附近,湖北省,武汉市,420116,黄陂区,,商务住宅;产业园区;产业园区,B0FFH3MEFB
114.300229,30.69903,No.1企业社区45,巨龙大道1号附近,湖北省,武汉市,420116,黄陂区,,商务住宅;产业园区;产业园区,B0FFH2137L
114.299822,30.699569,No.1企业社区46,巨龙大道58楼附近,湖北省,武汉市,420116,黄陂区,,商务住宅;产业园区;产业园区,B0FFH212VR
114.299191,30.700334,No.1企业社区25,宏图路附近,湖北省,武汉市,420116,黄陂区,,商务住宅;产业园区;产业园区,B0FFH213KR
114.297611,30.702067,No.1企业社区B67,宏图路附近,湖北省,武汉市,420116,黄陂区,,商务住宅;产业园区;产业园区,B0FFH3MDCL
114.297827,30.701918,No.1企业社区A61,宏图路附近,湖北省,武汉市,420116,黄陂区,,商务住宅;产业园区;产业园区,B0FFH3M5E0
114.297892,30.701893,No.1企业社区B61,宏图路附近,湖北省,武汉市,420116,黄陂区,,商务住宅;产业园区;产业园区,B0FFH3M4PM
114.296895,30.70282,No.1企业社区J11,武汉盘龙城一中(巨龙大道北),湖北省,武汉市,420116,黄陂区,,商务住宅;产业园区;产业园区,B0FFH3MDG4
114.297813,30.698479,No.1企业社区C6(巨龙大道),巨龙大道26号附近,湖北省,武汉市,420116,黄陂区,,商务住宅;产业园区;产业园区,B0FFH3M4MG
114.2982,30.701618,No.1企业社区E61,宏图路附近,湖北省,武汉市,420116,黄陂区,,商务住宅;产业园区;产业园区,B0FFH3M7W8
114.298094,30.701758,No.1企业社区D61,宏图路附近,湖北省,武汉市,420116,黄陂区,,商务住宅;产业园区;产业园区,B0FFH3M7ZD
114.29605,30.704086,No.1企业社区E6,,湖北省,武汉市,420116,黄陂区,,商务住宅;产业园区;产业园区,B0FFH1H98R
114.299154,30.700698,No.1企业社区26,宏图路附近,湖北省,武汉市,420116,黄陂区,,商务住宅;产业园区;产业园区,B0FFH213MQ
114.299835,30.700109,No.1企业社区52,宏图路附近,湖北省,武汉市,420116,黄陂区,,商务住宅;产业园区;产业园区,B0FFH21ALN
114.298094,30.701758,No.1企业社区D61,宏图路附近,湖北省,武汉市,420116,黄陂区,,商务住宅;产业园区;产业园区,B0FFH3M7ZD
114.29605,30.704086,No.1企业社区E6,,湖北省,武汉市,420116,黄陂区,,商务住宅;产业园区;产业园区,B0FFH1H98R
114.299154,30.700698,No.1企业社区26,宏图路附近,湖北省,武汉市,420116,黄陂区,,商务住宅;产业园区;产业园区,B0FFH213MQ
114.299835,30.700109,No.1企业社区52,宏图路附近,湖北省,武汉市,420116,黄陂区,,商务住宅;产业园区;产业园区,B0FFH21ALN
114.297794,30.702328,No.1企业社区68,,湖北省,武汉市,420116,黄陂区,,商务住宅;产业园区;产业园区,B0FFH3M7VC
114.299179,30.700975,No.1企业社区27,巨龙大道18号附近,湖北省,武汉市,420116,黄陂区,,商务住宅;产业园区;产业园区,B0FFH214LR
114.296387,30.704176,No.1企业社区E7,,湖北省,武汉市,420116,黄陂区,,商务住宅;产业园区;产业园区,B0FFH1I3EU
114.296429,30.703769,No.1企业社区E5,,湖北省,武汉市,420116,黄陂区,,商务住宅;产业园区;产业园区,B0FFH3MDD5
114.299646,30.700978,No.1企业社区A30,巨龙大道18号附近,湖北省,武汉市,420116,黄陂区,,商务住宅;产业园区;产业园区,B0FFH2140L
114.298143,30.702586,No.1企业社区J4,,湖北省,武汉市,420116,黄陂区,,商务住宅;产业园区;产业园区,B0FFH3MD8A
114.30035,30.700219,No.1企业社区51,,湖北省,武汉市,420116,黄陂区,,商务住宅;产业园区;产业园区,B0FFH213MH
114.297157,30.703474,No.1企业社区D5,,湖北省,武汉市,420116,黄陂区,,商务住宅;产业园区;产业园区,B0FFH3M4JB
114.299675,30.701073,No.1企业社区B30,巨龙大道18号附近,湖北省,武汉市,420116,黄陂区,,商务住宅;产业园区;产业园区,B0FFH21383
114.299777,30.701071,No.1企业社区C30,宏图路附近,湖北省,武汉市,420116,黄陂区,,商务住宅;产业园区;产业园区,B0FFH214GW
114.295619,30.70546,No.1企业社区G1,,湖北省,武汉市,420116,黄陂区,,商务住宅;产业园区;产业园区,B0FFH1HAE0
114.297139,30.703816,No.1企业社区E2,巨龙大道no-1附近,湖北省,武汉市,420116,黄陂区,,商务住宅;产业园区;产业园区,B0FFH3MDCY
114.297998,30.703154,No.1企业社区D1,,湖北省,武汉市,420116,黄陂区,,商务住宅;产业园区;产业园区,B0FFH3M4IN
114.297386,30.703741,No.1企业社区D6,巨龙大道no-1附近,湖北省,武汉市,420116,黄陂区,,商务住宅;产业园区;产业园区,B0FFH3M76P
114.296721,30.704347,No.1企业社区E8,,湖北省,武汉市,420116,黄陂区,,商务住宅;产业园区;产业园区,B0FFH26NIU
114.298216,30.703077,No.1企业社区C5,,湖北省,武汉市,420116,黄陂区,,商务住宅;产业园区;产业园区,B0FFH3M4S6
114.295238,30.705517,No.1企业社区J13,,湖北省,武汉市,420116,黄陂区,,商务住宅;产业园区;产业园区,B0FFH3MDCB
114.29959,30.7024,No.1企业社区J2,,湖北省,武汉市,420116,黄陂区,,商务住宅;产业园区;产业园区,B0FFH1I49S
114.296037,30.705463,No.1企业社区G2,,湖北省,武汉市,420116,黄陂区,,商务住宅;产业园区;产业园区,B0FFH1I5LB
114.298082,30.703347,No.1企业社区D2,,湖北省,武汉市,420116,黄陂区,,商务住宅;产业园区;产业园区,B0FFH3M77X
114.300044,30.702005,No.1企业社区J1,,湖北省,武汉市,420116,黄陂区,,商务住宅;产业园区;产业园区,B0FFH1HD0H
114.297381,30.704022,No.1企业社区E3,巨龙大道no-1附近,湖北省,武汉市,420116,黄陂区,,商务住宅;产业园区;产业园区,B0FFH3M74U
114.297589,30.703914,No.1企业社区D7,巨龙大道no-1号附近,湖北省,武汉市,420116,黄陂区,,商务住宅;产业园区;产业园区,B0FFH3M73Z
114.299123,30.703161,No.1企业社区C2,,湖北省,武汉市,420116,黄陂区,,商务住宅;产业园区;产业园区,B0FFH1H92S
114.296354,30.70549,No.1企业社区G3,,湖北省,武汉市,420116,黄陂区,,商务住宅;产业园区;产业园区,B0FFH1H8FD
114.298168,30.703613,No.1企业社区D3,创新路,湖北省,武汉市,420116,黄陂区,,商务住宅;产业园区;产业园区,B0FFH3M4RQ
114.300282,30.702205,No.1企业社区A1,,湖北省,武汉市,420116,黄陂区,,商务住宅;产业园区;产业园区,B0FFH1HI9N
114.295344,30.705909,No.1企业社区J14,,湖北省,武汉市,420116,黄陂区,,商务住宅;产业园区;产业园区,B0FFH3M7T5
114.298595,30.703893,No.1企业社区C8,,湖北省,武汉市,420116,黄陂区,,商务住宅;产业园区;产业园区,B0FFH1HKP0
114.29994,30.702649,No.1企业社区A10,,湖北省,武汉市,420116,黄陂区,,商务住宅;产业园区;产业园区,B0FFH1HOFO
114.296696,30.705495,No.1企业社区G4,,湖北省,武汉市,420116,黄陂区,,商务住宅;产业园区;产业园区,B0FFH1HB1V
114.299111,30.702979,No.1企业社区C1,,湖北省,武汉市,420116,黄陂区,,商务住宅;产业园区;产业园区,B0FFH25YCC
114.297602,30.704384,No.1企业社区E4,,湖北省,武汉市,420116,黄陂区,,商务住宅;产业园区;产业园区,B0FFH26MQ5
114.299117,30.703581,No.1企业社区C3,,湖北省,武汉市,420116,黄陂区,,商务住宅;产业园区;产业园区,B0FFH1H7PV
114.297388,30.704581,No.1企业社区E10,,湖北省,武汉市,420116,黄陂区,,商务住宅;产业园区;产业园区,B0FFH25LIK
114.299789,30.702953,No.1企业社区A11,,湖北省,武汉市,420116,黄陂区,,商务住宅;产业园区;产业园区,B0FFH1HMA5
114.297982,30.704147,No.1企业社区D8,巨龙大道no-1号附近,湖北省,武汉市,420116,黄陂区,,商务住宅;产业园区;产业园区,B0FFH26QWI
114.299357,30.702893,No.1企业社区B1,,湖北省,武汉市,420116,黄陂区,,商务住宅;产业园区;产业园区,B0FFH23P8V
114.295923,30.706241,No.1企业社区G7,第一企业社区G6栋海洋馆附近,湖北省,武汉市,420116,黄陂区,,商务住宅;产业园区;产业园区,B0FFH1HG0X
114.298217,30.704024,No.1企业社区D4,,湖北省,武汉市,420116,黄陂区,,商务住宅;产业园区;产业园区,B0FFH2308O
114.296163,30.706168,No.1企业社区G8,第一企业社区G6栋海洋馆附近,湖北省,武汉市,420116,黄陂区,,商务住宅;产业园区;产业园区,B0FFH1HJUS
114.299132,30.703802,No.1企业社区C4,,湖北省,武汉市,420116,黄陂区,,商务住宅;产业园区;产业园区,B0FFH1HJB6
114.295515,30.706255,No.1企业社区J15,,湖北省,武汉市,420116,黄陂区,,商务住宅;产业园区;产业园区,B0FFH3MDT6
114.299319,30.703794,No.1企业社区B4,盘龙城经济开发区汉口北总部基地品牌大道c3栋附近,湖北省,武汉市,420116,黄陂区,,商务住宅;产业园区;产业园区,B0FFH1HNHC
114.299297,30.703397,No.1企业社区B3,,湖北省,武汉市,420116,黄陂区,,商务住宅;产业园区;产业园区,B0FFH24RPQ
114.298004,30.699063,No.1企业社区B9(盘龙·壹公馆西),巨龙大道北150米,湖北省,武汉市,420116,黄陂区,,商务住宅;产业园区;产业园区,B0FFH3M7UD
114.296412,30.706053,No.1企业社区G9,,湖北省,武汉市,420116,黄陂区,,商务住宅;产业园区;产业园区,B0FFH25M3U
114.297162,30.70554,No.1企业社区G5,,湖北省,武汉市,420116,黄陂区,,商务住宅;产业园区;产业园区,B0FFH27XV8
114.295703,30.706659,No.1企业社区J16,,湖北省,武汉市,420116,黄陂区,,商务住宅;产业园区;产业园区,B0FFH3MDA7
114.299413,30.704318,No.1企业社区M2,,湖北省,武汉市,420116,黄陂区,,商务住宅;产业园区;产业园区,B0FFH1I47M
114.296822,30.705954,No.1企业社区G10,,湖北省,武汉市,420116,黄陂区,,商务住宅;产业园区;产业园区,B0FFH26L0F
114.2972,30.705821,No.1企业社区G11,,湖北省,武汉市,420116,黄陂区,,商务住宅;产业园区;产业园区,B0FFH26R2K
114.296127,30.706625,No.1企业社区H1,,湖北省,武汉市,420116,黄陂区,,商务住宅;产业园区;产业园区,B0FFH22HSI
114.296321,30.706517,No.1企业社区H2,,湖北省,武汉市,420116,黄陂区,,商务住宅;产业园区;产业园区,B0FFH22I3F
114.299959,30.704119,No.1企业社区A21,圣帝罗阑(盘龙一路西),湖北省,武汉市,420116,黄陂区,,商务住宅;产业园区;产业园区,B0FFH1I3TD
114.296623,30.706386,No.1企业社区H3,,湖北省,武汉市,420116,黄陂区,,商务住宅;产业园区;产业园区,B0FFH25NGR
114.296912,30.706354,No.1企业社区H4,,湖北省,武汉市,420116,黄陂区,,商务住宅;产业园区;产业园区,B0FFH22ETG
114.296021,30.707184,No.1企业社区J17,,湖北省,武汉市,420116,黄陂区,,商务住宅;产业园区;产业园区,B0FFH3M5M6
114.297504,30.706357,No.1企业社区H9,,湖北省,武汉市,420116,黄陂区,,商务住宅;产业园区;产业园区,B0FFH27PXS
114.300535,30.703926,No.1企业社区A23,,湖北省,武汉市,420116,黄陂区,,商务住宅;产业园区;产业园区,B0FFH24ZFE
114.297289,30.706655,No.1企业社区H8,,湖北省,武汉市,420116,黄陂区,,商务住宅;产业园区;产业园区,B0FFH24ZDM
114.296268,30.707512,No.1企业社区J18,,湖北省,武汉市,420116,黄陂区,,商务住宅;产业园区;产业园区,B0FFH3M5IU
114.297798,30.706611,No.1企业社区H10,,湖北省,武汉市,420116,黄陂区,,商务住宅;产业园区;产业园区,B0FFH3M6LC
114.296928,30.703635,No.1企业社区E1(龙城尚品东),,湖北省,武汉市,420116,黄陂区,,商务住宅;产业园区;产业园区,B0FFH3M726
114.297442,30.707238,No.1企业社区J21,,湖北省,武汉市,420116,黄陂区,,商务住宅;产业园区;产业园区,B0FFH3M5CN
114.289466,30.665017,金潭仓储物流,金潭村278号,湖北省,武汉市,420102,江岸区,,商务住宅;产业园区;产业园区,B001B1CTZQ
114.300067,30.702826,No.1企业社区A9(约瑟大厦西北),,湖北省,武汉市,420116,黄陂区,,商务住宅;产业园区;产业园区,B0FFH1I2U7
114.277883,30.62984,黄浦科技园,文博路,湖北省,武汉市,420102,江岸区,,商务住宅;产业园区;产业园区,B0FFFFUKAN
114.282366,30.62737,武汉创立方产业园,石桥一路18号,湖北省,武汉市,420102,江岸区,,商务住宅;产业园区;产业园区,B0FFHO1H80
114.280059,30.626707,黄埔科技园特16号,石桥一路14号,湖北省,武汉市,420102,江岸区,,商务住宅;产业园区;产业园区,B0FFGA7Q8I
114.284665,30.62558,武汉小微(科技)企业创业园,中一路特1号,湖北省,武汉市,420102,江岸区,竹叶山,商务住宅;产业园区;产业园区,B001B1C653
114.283276,30.627867,银江孵化器,塔子湖街街道石桥一路18号黄浦创立方10栋,湖北省,武汉市,420102,江岸区,,公司企业;公司;公司|商务住宅;产业园区;产业园区,B0FFJUCMWA
114.270488,30.627899,武汉出版文化产业园,兴业路19号,湖北省,武汉市,420102,江岸区,,商务住宅;产业园区;产业园区,B0FFKCSRNI
114.288767,30.633306,武汉市财贸学校·创新创业园,兴业路162号,湖北省,武汉市,420102,江岸区,二七,商务住宅;产业园区;产业园区,B0FFHZZO3S
114.277171,30.625773,江岸科技创业中心,石桥一路6号,湖北省,武汉市,420102,江岸区,,商务住宅;产业园区;产业园区,B001B1DFJS
114.283249,30.628217,中航长江(武汉)创意产业园,中一路与石桥一路交叉口南100米,湖北省,武汉市,420102,江岸区,,商务住宅;产业园区;产业园区,B0FFJEU50M
114.264964,30.651046,精益产业园,,湖北省,武汉市,420112,东西湖区,,商务住宅;产业园区;产业园区,B0FFLGLOI9
114.262829,30.653148,沣禾创业园,将军路251号,湖北省,武汉市,420112,东西湖区,,商务住宅;产业园区;产业园区,B0FFGFRE8N
114.260775,30.616461,武汉港工业园,经济开发区发展大道特一号,湖北省,武汉市,420103,江汉区,常青,商务住宅;产业园区;产业园区,B0FFG2E5FD
114.256668,30.651605,金银潭工业区,将军二路,湖北省,武汉市,420112,东西湖区,,商务住宅;产业园区;产业园区,B0FFG2ALZB
114.26372,30.658302,金银潭开发区,将军五路,湖北省,武汉市,420112,东西湖区,,商务住宅;产业园区;产业园区,B0FFG282MQ
114.261617,30.658064,通和工业园,将军4路26号,湖北省,武汉市,420112,东西湖区,,商务住宅;产业园区;产业园区,B0FFG9XEF1
114.2623,30.655263,骏马驰骋国际(武汉)工业园,将军四路5号附近,湖北省,武汉市,420112,东西湖区,,商务住宅;产业园区;产业园区,B0FFLC17XE
114.295922,30.659772,武汉东湖国家自主创新示范区,金桥大道117号武汉市民之家东翼武汉规划展示馆内,湖北省,武汉市,420102,江岸区,,商务住宅;产业园区;产业园区,B0FFI2DQNR
114.272138,30.58621,楚天大健康产业联盟,解放大道1269附近,湖北省,武汉市,420103,江汉区,万松,商务住宅;产业园区;产业园区,B0FFH5LRYC
114.276913,30.595667,江岸区高新技术创业中心中环大厦科技企业孵化器,台北街街道云林街31号,湖北省,武汉市,420102,江岸区,新华,商务住宅;产业园区;产业园区,B0FFGFH41Z
114.295248,30.589787,大智无界·空中小镇,大智路22-76号附近,湖北省,武汉市,420102,江岸区,,商务住宅;产业园区;产业园区,B0FFK2TW7I
114.281548,30.571906,江汉区满春街社会组织孵化基地,长堤街特1075附近,湖北省,武汉市,420103,江汉区,江滩,商务住宅;产业园区;产业园区,B0FFICFF8N
114.290326,30.605356,江岸区高新技术孵化基地,劳动街街道澳门路232号,湖北省,武汉市,420102,江岸区,建设大道,商务住宅;产业园区;产业园区,B0FFGCBITH
114.300251,30.586907,武汉文创谷飞马旅创业基地,黎黄陂路7号1栋,湖北省,武汉市,420102,江岸区,江滩,商务住宅;产业园区;产业园区,B0FFIZVPES
114.276859,30.607812,武汉江安工业园,天门墩路40号,湖北省,武汉市,420103,江汉区,新华,商务住宅;产业园区;产业园区,B001B08ZYH
114.298805,30.59262,社会组织孵化基地,车站街潞安里1号,湖北省,武汉市,420102,江岸区,,商务住宅;产业园区;产业园区|政府机构及社会团体;社会团体;社会团体相关,B0FFG05YJL
114.300373,30.58691,文创谷天使街区,黎黄陂路7号,湖北省,武汉市,420102,江岸区,江滩,公司企业;公司;公司|商务住宅;产业园区;产业园区,B0FFIARBXO
114.294144,30.569585,武汉吴家山海峡两岸高科技产业园,民权路特1号长江大厦10层,湖北省,武汉市,420103,江汉区,江滩,商务住宅;产业园区;产业园区,B001B09J3E
114.301331,30.597647,WPDI,京汉大道1250号附近,湖北省,武汉市,420102,江岸区,,商务住宅;产业园区;产业园区,B0FFGODUB4
114.267537,30.555823,汉阳造艺术区,晴川街办事处龟北路1号,湖北省,武汉市,420105,汉阳区,,商务住宅;产业园区;产业园区,B0FFFSUPEB
114.268114,30.555927,汉阳造文化创意产业园,龟山北路1号,湖北省,武汉市,420105,汉阳区,,商务住宅;产业园区;产业园区,B001B16QFV
114.26887,30.542396,武汉工友创业孵化基地,鹦鹉大道163-附18号,湖北省,武汉市,420105,汉阳区,鹦鹉村,商务住宅;产业园区;产业园区,B0FFHOY10A
114.298718,30.54971,大成汇,中华路街街道中华路街办事处清江饭店,湖北省,武汉市,420106,武昌区,司门口,商务住宅;产业园区;产业园区,B0FFIP8M5P
114.289747,30.514106,白沙智洲,武金堤路与江盛路交叉口东北200米,湖北省,武汉市,420106,武昌区,,商务住宅;产业园区;产业园区,B0FFK8UDBR
114.267484,30.557508,汉阳区智能空间企业创新中心,造文化创意产业园,湖北省,武汉市,420105,汉阳区,,商务住宅;产业园区;产业园区,B0FFJ7ZEEH
114.291528,30.515228,鹏程·中泰工业园,白沙洲大道江民路堤东街1号,湖北省,武汉市,420106,武昌区,,商务住宅;产业园区;产业园区,B001B0JOME
114.269109,30.56062,汉阳造1889国际文创产业园,汉南路12号附近,湖北省,武汉市,420105,汉阳区,,商务住宅;产业园区;产业园区,B0FFJRVM7V
114.298791,30.515563,大学生创业孵化基地,白沙洲街办事处白沙洲大道519号,湖北省,武汉市,420106,武昌区,,商务住宅;产业园区;产业园区,B0FFHP24QC
114.274425,30.485612,武汉九洲红阳产业基地,白沙二路西50米,湖北省,武汉市,420111,洪山区,张家湾,商务住宅;产业园区;产业园区,B0FFH3YGJZ
114.269223,30.480443,超越家俱工业园,青菱乡,湖北省,武汉市,420111,洪山区,,商务住宅;产业园区;产业园区,B0FFG28O5V
114.283476,30.480241,大学生创新创业孵化基地,街办事处路,湖北省,武汉市,420111,洪山区,张家湾,商务住宅;产业园区;产业园区,B0FFK8F2GE
114.286955,30.496319,白沙洲都市工业园区,白沙洲大道高架与白沙洲大道高架出口交叉口北100米,湖北省,武汉市,420111,洪山区,张家湾,商务住宅;产业园区;产业园区,B0FFHLVHB9
114.279259,30.497953,白沙洲工业园八坦路烽火园区,堤后街东50米,湖北省,武汉市,420106,武昌区,,商务住宅;产业园区;产业园区,B0FFH23J4P
114.300793,30.466671,胜利工业园,武南路西150米,湖北省,武汉市,420111,洪山区,,商务住宅;产业园区;产业园区,B001B170BA
114.282309,30.502611,武汉光通科技企业孵化器,白沙洲街办事处江国路522号,湖北省,武汉市,420106,武昌区,,商务住宅;产业园区;产业园区,B0FFHCMS1O
114.283295,30.503592,武汉光通科技园,白沙洲江国路522号,湖北省,武汉市,420106,武昌区,,商务住宅;产业园区;产业园区,B001B1AR0Z
114.28327,30.504412,山东安惠绳网安全网批发生产基地,江国北巷南150米,湖北省,武汉市,420106,武昌区,,商务住宅;产业园区;产业园区,B0FFI1OFDB
114.288555,30.510873,白沙洲都市工业园区(江盛路),堤后街528号,湖北省,武汉市,420106,武昌区,,商务住宅;产业园区;产业园区,B0FFGQ0ZKF
114.290029,30.509597,武汉白沙洲工业园烽火园区(江盛路),江盛路西50米,湖北省,武汉市,420106,武昌区,,商务住宅;产业园区;产业园区,B0FFGQ1533
114.291824,30.509172,武汉国家现代服务业信息安全产业化基地,江盛路9附2,湖北省,武汉市,420106,武昌区,,商务住宅;产业园区;产业园区,B0FFHCMRUR
114.267682,30.438604,武科大大学生创业园,知贤路附近,湖北省,武汉市,420111,洪山区,,商务住宅;产业园区;产业园区,B0FFGKPKM2
114.259807,30.434413,红霞物流园,白沙洲大道13号,湖北省,武汉市,420111,洪山区,,商务住宅;产业园区;产业园区,B0FFGKI9VM
114.258665,30.42545,华中汽车生态产业园,白沙洲大道7号,湖北省,武汉市,420111,洪山区,,商务住宅;产业园区;产业园区,B001B15V31
114.268897,30.457093,大学生创业城,丽水路与青菱高架交叉口北100米,湖北省,武汉市,420111,洪山区,,商务住宅;产业园区;产业园区,B0FFF5OGZK
114.267269,30.44909,黄家湖大学城,岐黄北路与知行大道交叉口西北150米,湖北省,武汉市,420111,洪山区,,商务住宅;产业园区;产业园区,B0FFGAPIR4
114.259652,30.418582,华中动力产业园,白沙洲大道辅路西100米,湖北省,武汉市,420111,洪山区,,商务住宅;产业园区;产业园区,B0FFH4US04
114.271218,30.456589,跨境电子商务创新与创业孵化中心,黄家湖西路3号武汉长江工商学院弘德楼附近,湖北省,武汉市,420111,洪山区,,商务住宅;产业园区;产业园区,B0FFIWAZFR
